stop_id,stop_code,stop_name,tts_stop_name,stop_desc,stop_lat,stop_lon,zone_id,stop_url,location_type,parent_station,stop_timezone,wheelchair_boarding,level_id,platform_code
"MOBIITI:StopPlace:77324",,"Annesse et Beaulieu bourg",,,45.173286,0.591609,"",,1,,,2,,
"MOBIITI:StopPlace:77202",,"Lespinasse Haute",,,45.197544,0.639856,,,1,,,2,,
"MOBIITI:StopPlace:77445",,"Les Andrieux",,,45.145409,0.665576,,,1,,,2,,
"MOBIITI:StopPlace:77325",,"Mensignac bourg",,,45.225239,0.560949,"",,1,,,2,,
"MOBIITI:StopPlace:77201",,"Chem. de Lespinasse",,,45.196728,0.643757,,,1,,,2,,
"MOBIITI:StopPlace:77322",,"Porte Corgne",,,45.131187,0.799896,,,1,,,2,,
"MOBIITI:StopPlace:77204",,"Curille",,,45.206787,0.661239,,,1,,,2,,
"MOBIITI:StopPlace:77323",,"la Croix Blanche",,,45.221416,0.553694,"",,1,,,2,,
"MOBIITI:StopPlace:77203",,"Al. des Sports",,,45.192696,0.647572,,,1,,,2,,
"MOBIITI:StopPlace:77444",,"Place du Cerf",,,45.145157,0.690422,,,1,,,2,,
"MOBIITI:StopPlace:77320",,"Le Poureix",,,45.126301,0.797166,,,1,,,2,,
"MOBIITI:StopPlace:77441",,"Les Eglantiers Hauts",,,45.152164,0.688925,,,1,,,2,,
"MOBIITI:StopPlace:77321",,"ZA Grand Font",,,45.152435,0.789280,,,1,,,2,,
"MOBIITI:StopPlace:77200",,"Chancelade Lespinasse",,,45.195740,0.638363,,,1,,,2,,
"MOBIITI:StopPlace:77440",,"Ecole Joliot Curie",,,45.184425,0.745740,,,1,,,2,,
"MOBIITI:StopPlace:77209",,"Le Ligonat",,,45.219406,0.648135,,,1,,,2,,
"MOBIITI:StopPlace:77206",,"Chem. de Terrassonnie",,,45.205956,0.650522,,,1,,,2,,
"MOBIITI:StopPlace:77449",,"Sorges - Les 4 routes",,,45.268536,0.833455,,,1,,,2,,
"MOBIITI:StopPlace:77328",,"Trésorerie Municipale",,,45.180252,0.711794,,,1,,,2,,
"MOBIITI:StopPlace:77205",,"Al. des Bois",,,45.205803,0.665981,,,1,,,2,,
"MOBIITI:StopPlace:77329",,"Les Crouchaux",,,45.148388,0.690536,,,1,,,2,,
"MOBIITI:StopPlace:77326",,"La Chapelle Gonaguet - Bourg",,,45.231003,0.612555,"",,1,,,2,,
"MOBIITI:StopPlace:77208",,"Majourdin",,,45.198509,0.649979,,,1,,,2,,
"MOBIITI:StopPlace:77447",,"Sorges - Le Clapier",,,45.300648,0.860647,,,1,,,2,,
"MOBIITI:StopPlace:77207",,"Terrassonnie Village",,,45.204174,0.644107,,,1,,,2,,
"MOBIITI:StopPlace:77448",,"Sorges - Les Palissous",,,45.308674,0.865032,,,1,,,2,,
"MOBIITI:StopPlace:77327",,"Pôle Interconsulaire",,,45.144943,0.698063,,,1,,,2,,
"MOBIITI:StopPlace:77335",,"Les Prés",,,45.187283,0.730164,,,1,,,2,,
"MOBIITI:StopPlace:77213",,"Puy Ferrat",,,45.209705,0.679399,,,1,,,2,,
"MOBIITI:StopPlace:77456",,"Sorges - Les Potences 2",,,45.259571,0.819953,,,1,,,2,,
"MOBIITI:StopPlace:77336",,"Charnay Frachet",,,45.188148,0.733704,,,1,,,2,,
"MOBIITI:StopPlace:77457",,"Sorges - Les Potences",,,45.262451,0.826697,,,1,,,2,,
"MOBIITI:StopPlace:77212",,"Lavaure Haute",,,45.216171,0.677655,,,1,,,2,,
"MOBIITI:StopPlace:77333",,"Parmentier",,,45.185379,0.738567,,,1,,,2,,
"MOBIITI:StopPlace:77215",,"Al. des Fauvettes",,,45.219753,0.652993,,,1,,,2,,
"MOBIITI:StopPlace:77454",,"Les Piles",,,45.252312,0.811385,"",,1,,,2,,
"MOBIITI:StopPlace:77334",,"Le Gué de Barnabé",,,45.186180,0.738224,,,1,,,2,,
"MOBIITI:StopPlace:77214",,"Parricot",,,45.213104,0.667654,,,1,,,2,,
"MOBIITI:StopPlace:77331",,"Rte de Ribérac",,,45.196796,0.653659,,,1,,,1,,
"MOBIITI:StopPlace:77452",,"La Luminade",,,45.241982,0.782296,,,1,,,2,,
"MOBIITI:StopPlace:2501",,"LR TRELISSAC - Les Garennes",,"",45.195683,0.783065,"",,1,,,0,,
"MOBIITI:StopPlace:77332",,"Bd de Saltgourde",,,45.197918,0.669917,,,1,,,2,,
"MOBIITI:StopPlace:77453",,"Lacombe",,,45.236084,0.784248,,,1,,,2,,
"MOBIITI:StopPlace:77211",,"Puy de l'Arche",,,45.212997,0.680347,,,1,,,2,,
"MOBIITI:StopPlace:77450",,"Sorges - Les Chabannes",,,45.285629,0.850295,,,1,,,2,,
"MOBIITI:StopPlace:77330",,"Av. du Château",,,45.194759,0.666050,,,1,,,2,,
"MOBIITI:StopPlace:77210",,"Les Alisiers",,,45.215603,0.646568,,,1,,,2,,
"MOBIITI:StopPlace:77451",,"Sorges - Bourg Place Mallet",,,45.307835,0.871003,,,1,,,2,,
"MOBIITI:StopPlace:77339",,"Église St-Georges",,,45.179726,0.728530,,,1,,,1,,
"MOBIITI:StopPlace:77217",,"Le Charpré",,,45.209049,0.658270,,,1,,,2,,
"MOBIITI:StopPlace:77216",,"Lavaure Basse",,,45.217693,0.672165,,,1,,,2,,
"MOBIITI:StopPlace:77337",,"Les Mondoux",,,45.185459,0.730113,,,1,,,2,,
"MOBIITI:StopPlace:77219",,"Les Bruyères",,,45.213760,0.650157,,,1,,,2,,
"MOBIITI:StopPlace:77458",,"Sorges - Le Poteau",,,45.323143,0.871539,,,1,,,2,,
"MOBIITI:StopPlace:77338",,"Albert Martin",,,45.185886,0.735357,,,1,,,2,,
"MOBIITI:StopPlace:77218",,"Bois Ouest",,,45.213337,0.646459,,,1,,,2,,
"MOBIITI:StopPlace:77544",,"Marsac Piscine",,,45.187916,0.660845,,,1,,,2,,
"MOBIITI:StopPlace:77302",,"Puyrousseau",,,45.201756,0.710452,,,1,,,2,,
"MOBIITI:StopPlace:77423",,"Les Broudissoux",,,45.262993,0.751231,,,1,,,2,,
"MOBIITI:StopPlace:77303",,"La Rudeille",,,45.198421,0.726423,,,1,,,2,,
"MOBIITI:StopPlace:77424",,"Le Pouliquet",,,45.267822,0.749816,,,1,,,2,,
"MOBIITI:StopPlace:77300",,"Maison Rouge",,,45.207432,0.714456,,,1,,,2,,
"MOBIITI:StopPlace:77542",,"Saint Laurent des Bâtons - Ecole",,,44.959042,0.737964,,,1,,,2,,
"MOBIITI:StopPlace:77421",,"Agonac Bourg",,,45.291321,0.751075,,,1,,,2,,
"MOBIITI:StopPlace:77543",,"Chantecor",,,45.201866,0.743627,,,1,,,0,,
"MOBIITI:StopPlace:77301",,"Les Jaures",,,45.206081,0.715499,,,1,,,1,,
"MOBIITI:StopPlace:77422",,"Agonac - Salle des fetes",,,45.289005,0.752599,,,1,,,2,,
"MOBIITI:StopPlace:77540",,"Saint Alvère - Ecole",,,44.947273,0.811022,,,1,,,2,,
"MOBIITI:StopPlace:77541",,"Cendrieux - Ecole",,,44.994991,0.818668,,,1,,,2,,
"MOBIITI:StopPlace:77420",,"Agonac Gare",,,45.287010,0.747211,,,1,,,2,,
"MOBIITI:StopPlace:77308",,"Victor Hugo",,,45.188641,0.717660,,,1,,,2,,
"MOBIITI:StopPlace:77429",,"Kourlouze",,,45.220066,0.629397,,,1,,,2,,
"MOBIITI:StopPlace:77309",,"Campus",,,45.197113,0.718130,,,1,,,2,,
"MOBIITI:StopPlace:77306",,"Le Cluzeau",,,45.196331,0.705910,,,1,,,2,,
"MOBIITI:StopPlace:77427",,"Sourbarie",,,45.242165,0.726500,,,1,,,2,,
"MOBIITI:StopPlace:77428",,"Les Basses Veyrinas",,,45.212002,0.614564,,,1,,,2,,
"MOBIITI:StopPlace:77304",,"L'Ermitage",,,45.195107,0.723227,,,1,,,2,,
"MOBIITI:StopPlace:77425",,"Les Granges",,,45.216034,0.702989,,,1,,,2,,
"MOBIITI:StopPlace:77305",,"Combe des Dames",,,45.191345,0.721385,,,1,,,2,,
"MOBIITI:StopPlace:77426",,"Le Toulon",,,45.203552,0.696925,,,1,,,2,,
"MOBIITI:StopPlace:77313",,"Longueville",,,45.208866,0.726415,,,1,,,2,,
"MOBIITI:StopPlace:77434",,"Hangar Municipal",,,45.233883,0.616259,,,1,,,2,,
"MOBIITI:StopPlace:77314",,"Pôle Universitaire Grenadière",,,45.194477,0.720215,,,1,,,2,,
"MOBIITI:StopPlace:77435",,"Le Puy de Merlande",,,45.242821,0.637037,,,1,,,2,,
"MOBIITI:StopPlace:77311",,"Boisset",,,45.198345,0.720582,,,1,,,2,,
"MOBIITI:StopPlace:77432",,"Chapelle Gonaguet Ecole",,,45.231491,0.610013,,,1,,,2,,
"MOBIITI:StopPlace:77312",,"Barbe",,,45.202232,0.725275,,,1,,,2,,
"MOBIITI:StopPlace:77433",,"Croix de Biras",,,45.228527,0.619961,,,1,,,2,,
"MOBIITI:StopPlace:77430",,"Les Brunies",,,45.216351,0.634672,,,1,,,2,,
"MOBIITI:StopPlace:77310",,"Ludovic Trarieux",,,45.191521,0.713414,,,1,,,2,,
"MOBIITI:StopPlace:77431",,"Epicerie",,,45.229794,0.616363,,,1,,,2,,
"MOBIITI:StopPlace:77319",,"Halte Niversac",,,45.138115,0.808099,"",,1,,,1,,
"MOBIITI:StopPlace:77317",,"Ampère",,,45.192596,0.714520,,,1,,,2,,
"MOBIITI:StopPlace:77438",,"La Croix Bertrix",,,45.178280,0.738900,,,1,,,2,,
"MOBIITI:StopPlace:77439",,"Les Hauts de l'Agora",,,45.177910,0.756124,,,1,,,2,,
"MOBIITI:StopPlace:77318",,"Basse Faye",,,45.119160,0.798018,,,1,,,2,,
"MOBIITI:StopPlace:77315",,"Beaulieu",,,45.190643,0.717184,,,1,,,1,,
"MOBIITI:StopPlace:77436",,"Les Genets",,,45.218163,0.618047,,,1,,,2,,
"MOBIITI:StopPlace:77316",,"Blaise Pascal",,,45.192329,0.719129,,,1,,,2,,
"MOBIITI:StopPlace:77437",,"Les Jalajoux",,,45.243114,0.621209,,,1,,,2,,
"MOBIITI:StopPlace:77360",,"Fontaine des Privats",,,45.120716,0.656884,,,1,,,2,,
"MOBIITI:StopPlace:77481",,"Creyssensac - Cimetière",,,45.076859,0.666565,,,1,,,2,,
"MOBIITI:StopPlace:77361",,"Rte des Privats2",,,45.122059,0.649280,,,1,,,2,,
"MOBIITI:StopPlace:77482",,"Sorges - Ecole Place COOP",,,45.308556,0.875013,,,1,,,2,,
"MOBIITI:StopPlace:77240",,"Les Falots",,,45.163841,0.726528,,,1,,,2,,
"MOBIITI:StopPlace:77480",,"Creyssensac - Les Graves",,,45.084057,0.650246,,,1,,,2,,
"MOBIITI:StopPlace:77368",,"Residence la Morine",,,45.118702,0.641282,,,1,,,2,,
"MOBIITI:StopPlace:77489",,"Sorges - Bujadelles",,,45.270107,0.873759,,,1,,,2,,
"MOBIITI:StopPlace:77246",,"Chantelot",,,45.166027,0.734479,,,1,,,2,,
"MOBIITI:StopPlace:77125",,"Paumarélie",,,45.203590,0.778375,,,1,,,1,,
"MOBIITI:StopPlace:77369",,"Le Cerf de Memie",,,45.146454,0.639605,,,1,,,2,,
"MOBIITI:StopPlace:77245",,"Le Lac Blanc",,,45.152401,0.727845,,,1,,,2,,
"MOBIITI:StopPlace:77124",,"Jaunour",,,45.180656,0.796190,,,1,,,1,,
"MOBIITI:StopPlace:77366",,"Coupe-Gorge",,,45.106697,0.626969,,,1,,,2,,
"MOBIITI:StopPlace:77248",,"Duverger",,,45.158550,0.730690,,,1,,,2,,
"MOBIITI:StopPlace:77127",,"Les Maravals",,,45.208450,0.787370,,,1,,,2,,
"MOBIITI:StopPlace:77367",,"Le Lac Rouge",,,45.141647,0.634982,,,1,,,2,,
"MOBIITI:StopPlace:77247",,"Les Hauts de Pommier",,,45.163143,0.734760,,,1,,,2,,
"MOBIITI:StopPlace:77126",,"Les Pinots",,,45.206612,0.776916,,,1,,,1,,
"MOBIITI:StopPlace:77364",,"Volvey",,,45.110493,0.638759,,,1,,,2,,
"MOBIITI:StopPlace:77242",,"Guillaume Apollinaire",,,45.143490,0.736070,,,1,,,2,,
"MOBIITI:StopPlace:77121",,"Bauchaud",,,45.175880,0.786915,,,1,,,2,,
"MOBIITI:StopPlace:77365",,"Maison Jeannette",,,45.115089,0.637714,,,1,,,2,,
"MOBIITI:StopPlace:77241",,"Atur Bourg",,,45.140209,0.747905,,,1,,,2,,
"MOBIITI:StopPlace:77120",,"Combe Neuve",,,45.172722,0.788178,,,1,,,2,,
"MOBIITI:StopPlace:77123",,"Lescure",,,45.172916,0.773865,,,1,,,1,,
"MOBIITI:StopPlace:77362",,"Rte des Privats1",,,45.122116,0.646935,,,1,,,2,,
"MOBIITI:StopPlace:77244",,"La Turcade",,,45.169537,0.733610,,,1,,,2,,
"MOBIITI:StopPlace:77363",,"Coursac Ecole",,,45.125355,0.640585,,,1,,,2,,
"MOBIITI:StopPlace:77243",,"Les Pins",,,45.172794,0.732405,,,1,,,2,,
"MOBIITI:StopPlace:77122",,"Campus de la Formation",,,45.181580,0.778034,,,1,,,0,,
"MOBIITI:StopPlace:77129",,"Gabriel Péri",,,45.209770,0.792045,,,1,,,2,,
"MOBIITI:StopPlace:77249",,"Pommier",,,45.156734,0.729155,,,1,,,2,,
"MOBIITI:StopPlace:77128",,"La Berthonie",,,45.212605,0.791937,,,1,,,2,,
"MOBIITI:StopPlace:77372",,"Ecole Maternelle",,,45.185970,0.633892,,,1,,,2,,
"MOBIITI:StopPlace:77493",,"Vergt - Collège",,,45.024284,0.711971,,,1,,,2,,
"MOBIITI:StopPlace:77251",,"Puycorbeau",,,45.146584,0.729595,,,1,,,2,,
"MOBIITI:StopPlace:77130",,"Cavillac",,,45.203411,0.787151,,,1,,,2,,
"MOBIITI:StopPlace:77490",,"Saint Laurent des Bâtons - la Rousique",,,44.970123,0.722867,,,1,,,2,,
"MOBIITI:StopPlace:77250",,"F. René Chateaubriand",,,45.141804,0.744225,,,1,,,2,,
"MOBIITI:StopPlace:77491",,"Fouleix - le bourg",,,44.985020,0.680660,,,1,,,2,,
"MOBIITI:StopPlace:77257",,"Jules Verne",,,45.190372,0.694620,,,1,,,1,,
"MOBIITI:StopPlace:77136",,"Badinter",,,45.183983,0.717181,,,1,,,2,,
"MOBIITI:StopPlace:77379",,"LEP Gour de l'Arche",,,45.199905,0.675413,,,1,,,2,,
"MOBIITI:StopPlace:77135",,"Maréchal Juin",,,45.185207,0.711595,,,1,,,2,,
"MOBIITI:StopPlace:77256",,"Pont de la Cité",,,45.185055,0.699766,,,1,,,0,,
"MOBIITI:StopPlace:77017",,"Taillefer",,,45.183613,0.718428,,,1,,,1,,
"MOBIITI:StopPlace:77138",,"Trélissac Barberousse",,,45.198196,0.740436,,,1,,,2,,
"MOBIITI:StopPlace:77259",,"Imprimerie du Timbre",,,45.181534,0.769754,,,1,,,2,,
"MOBIITI:StopPlace:77377",,"Langlade",,,45.178509,0.602288,,,1,,,2,,
"MOBIITI:StopPlace:77498",,"Saint Amand de Vergt - Place de la Mairie",,,44.988373,0.697855,,,1,,,2,,
"MOBIITI:StopPlace:77258",,"Mounet Sully",,,45.193832,0.691523,,,1,,,1,,
"MOBIITI:StopPlace:77137",,"P+r Chancelade",,,45.199272,0.664762,,,1,,,2,,
"MOBIITI:StopPlace:77378",,"Lachenal",,,45.171684,0.583536,,,1,,,2,,
"MOBIITI:StopPlace:77499",,"Saint Laurent des Bâtons - Le Bourg",,,44.959305,0.735667,,,1,,,2,,
"MOBIITI:StopPlace:77253",,"Charles Durand",,,45.179585,0.715664,,,1,,,2,,
"MOBIITI:StopPlace:77375",,"Escoire - Ecole",,,45.209888,0.845470,,,1,,,2,,
"MOBIITI:StopPlace:77132",,"Le Libournet",,,45.198635,0.787156,,,1,,,2,,
"MOBIITI:StopPlace:77496",,"Saint Michel de Villadeix - Pradignac",,,45.008564,0.739050,,,1,,,2,,
"MOBIITI:StopPlace:77252",,"Héliodore",,,45.145351,0.746190,,,1,,,2,,
"MOBIITI:StopPlace:77131",,"Verte Prairie",,,45.200935,0.788607,,,1,,,2,,
"MOBIITI:StopPlace:77376",,"Albert Claveille",,,45.189346,0.713494,,,1,,,2,,
"MOBIITI:StopPlace:77497",,"Veyrines de Vergt - La Croix",,,44.990013,0.764078,,,1,,,2,,
"MOBIITI:StopPlace:77255",,"Campniac",,,45.176643,0.713326,,,1,,,2,,
"MOBIITI:StopPlace:77373",,"Ecole Primaire",,,45.182438,0.653504,,,1,,,2,,
"MOBIITI:StopPlace:77134",,"Les Gourdoux",,,45.215038,0.786426,,,1,,,2,,
"MOBIITI:StopPlace:77494",,"Saint Michel de Villadeix - Le Cannebal",,,44.989960,0.746439,,,1,,,2,,
"MOBIITI:StopPlace:77254",,"Courbet",,,45.181465,0.707108,,,1,,,2,,
"MOBIITI:StopPlace:77374",,"Antonne - Ecole",,,45.211960,0.830500,,,1,,,2,,
"MOBIITI:StopPlace:77133",,"Trélissac Jean Jaurès",,,45.205757,0.786328,,,1,,,2,,
"MOBIITI:StopPlace:77495",,"Saint Michel de Villadeix - Salle des Fêtes",,,44.986515,0.722368,,,1,,,2,,
"MOBIITI:StopPlace:77019",,"Les Reynats",,,45.202862,0.668091,,,1,,,2,,
"MOBIITI:StopPlace:77018",,"Pont de la Beauronne",,,45.199532,0.675961,,,1,,,2,,
"MOBIITI:StopPlace:77139",,"PEM",,,45.186573,0.706916,"",,1,,,1,,
"MOBIITI:StopPlace:77460",,"Le Charretier",,,45.239433,0.783319,,,1,,,2,,
"MOBIITI:StopPlace:77103",,"Lavoisier",,,45.180931,0.743143,,,1,,,2,,
"MOBIITI:StopPlace:77224",,"Arthur Rimbaud",,,45.172871,0.762220,,,1,,,1,,
"MOBIITI:StopPlace:77467",,"Ecole Yves Péron",,,45.183750,0.784131,,,1,,,2,,
"MOBIITI:StopPlace:77346",,"Sanet",,,45.258141,0.751730,,,1,,,2,,
"MOBIITI:StopPlace:77102",,"Espace Nelson Mandela",,,45.181618,0.758947,,,1,,,2,,
"MOBIITI:StopPlace:77347",,"Bosquely",,,45.269348,0.721429,,,1,,,2,,
"MOBIITI:StopPlace:77468",,"Eglise neuve de vergt- salle des fêtes",,,45.082710,0.733000,,,1,,,2,,
"MOBIITI:StopPlace:77223",,"La Filolie",,,45.170948,0.763303,,,1,,,1,,
"MOBIITI:StopPlace:77105",,"St-Georges",,,45.177429,0.730316,,,1,,,2,,
"MOBIITI:StopPlace:77344",,"Le Timbre",,,45.257298,0.733375,,,1,,,2,,
"MOBIITI:StopPlace:77226",,"Stèle de Lesparat",,,45.180779,0.759093,,,1,,,0,,
"MOBIITI:StopPlace:77465",,"La Douze - Versannes bourg",,,45.089935,0.856025,,,1,,,2,,
"MOBIITI:StopPlace:77104",,"Gay Lussac",,,45.180569,0.741105,,,1,,,2,,
"MOBIITI:StopPlace:77345",,"Saleuil",,,45.253597,0.741139,,,1,,,2,,
"MOBIITI:StopPlace:77225",,"Bonnabeau",,,45.176567,0.760955,,,1,,,1,,
"MOBIITI:StopPlace:77466",,"La Douze bourg",,,45.061245,0.863392,,,1,,,2,,
"MOBIITI:StopPlace:77342",,"Agonac Ecoles primaire et maternelle",,,45.294041,0.752519,,,1,,,2,,
"MOBIITI:StopPlace:77220",,"Beauronne",,,45.224579,0.670765,,,1,,,2,,
"MOBIITI:StopPlace:77343",,"Lannerie",,,45.262104,0.728424,,,1,,,2,,
"MOBIITI:StopPlace:77464",,"Lacropte - Trou de l'escalier",,,45.040520,0.864522,,,1,,,2,,
"MOBIITI:StopPlace:77101",,"Les Mondis",,,45.179180,0.750067,,,1,,,2,,
"MOBIITI:StopPlace:77340",,"Jean Clédat",,,45.182564,0.731886,,,1,,,2,,
"MOBIITI:StopPlace:77222",,"Boulazac les Brandes",,,45.168476,0.759747,,,1,,,1,,
"MOBIITI:StopPlace:77461",,"Rue du 8 Mai (49)",,,45.184925,0.633185,,,1,,,2,,
"MOBIITI:StopPlace:77100",,"Gaston Monmousseau",,,45.179111,0.757020,,,1,,,2,,
"MOBIITI:StopPlace:77341",,"Petit Sanet",,,45.250744,0.760545,,,1,,,2,,
"MOBIITI:StopPlace:77221",,"Les Grands Chênes",,,45.166672,0.755514,,,1,,,2,,
"MOBIITI:StopPlace:77107",,"Les Châtaigniers",,,45.172611,0.742591,,,1,,,2,,
"MOBIITI:StopPlace:77228",,"Therme Blanc",,,45.144047,0.724011,,,1,,,2,,
"MOBIITI:StopPlace:77106",,"Montplaisir",,,45.175938,0.740201,,,1,,,2,,
"MOBIITI:StopPlace:77227",,"Notre-Dame de Sanilhac Poste",,,45.121628,0.715639,,,1,,,1,,
"MOBIITI:StopPlace:77109",,"Olympe de Gouges",,,45.174149,0.741396,,,1,,,0,,
"MOBIITI:StopPlace:77348",,"Le Lyonnet",,,45.251579,0.744359,,,1,,,2,,
"MOBIITI:StopPlace:77469",,"Chalagnac Ecole",,,45.092369,0.677559,,,1,,,2,,
"MOBIITI:StopPlace:77108",,"Beauregard",,,45.168903,0.749666,,,1,,,2,,
"MOBIITI:StopPlace:77349",,"Le Cluzeau",,,45.246944,0.733035,,,1,,,2,,
"MOBIITI:StopPlace:77229",,"19 mars 1962",,,45.119656,0.719485,,,1,,,2,,
"MOBIITI:StopPlace:77470",,"Saint Paul de Serre Ecole",,,45.086708,0.633011,,,1,,,2,,
"MOBIITI:StopPlace:77350",,"Trelissac Ecole Maurilloux",,,45.190762,0.747176,,,1,,,2,,
"MOBIITI:StopPlace:77471",,"Saint Paul de Serre - atelier municipal",,,45.080723,0.635683,,,1,,,2,,
"MOBIITI:StopPlace:2839",,"PÉRIGUEUX - Centre des communications",,"",45.179897,0.724762,"",,1,,,0,,
"MOBIITI:StopPlace:77357",,"Pagot",,,45.179565,0.691830,,,1,,,2,,
"MOBIITI:StopPlace:77478",,"Chalagnac - Les Chanteloubes",,,45.072357,0.683097,,,1,,,2,,
"MOBIITI:StopPlace:77114",,"ESAT OSEA",,,45.205536,0.827388,,,1,,,2,,
"MOBIITI:StopPlace:77235",,"Prompsault",,,45.173210,0.726706,,,1,,,1,,
"MOBIITI:StopPlace:77113",,"Rte du Pont",,,45.193047,0.781551,,,1,,,1,,
"MOBIITI:StopPlace:77358",,"Ecole Eugene Leroy",,,45.192226,0.691313,,,1,,,2,,
"MOBIITI:StopPlace:77479",,"Vergt-Fauchérias",,,45.067413,0.691297,,,1,,,2,,
"MOBIITI:StopPlace:77234",,"Notre-Dame de Sanilhac Mairie",,,45.175621,0.726013,,,1,,,2,,
"MOBIITI:StopPlace:77355",,"Ste Marie de Chignac Ecole",,,45.130939,0.827347,,,1,,,2,,
"MOBIITI:StopPlace:77476",,"Creyssensac - La Landière",,,45.071896,0.681537,,,1,,,2,,
"MOBIITI:StopPlace:77237",,"Les Jargues",,,45.156811,0.723102,,,1,,,2,,
"MOBIITI:StopPlace:77116",,"Rte de Jaunour",,,45.181999,0.790190,,,1,,,1,,
"MOBIITI:StopPlace:77356",,"Saint Laurent sur Manoire Ecole",,,45.148987,0.793104,,,1,,,2,,
"MOBIITI:StopPlace:77477",,"Saint Paul de Serre - Eglise",,,45.088448,0.633746,,,1,,,2,,
"MOBIITI:StopPlace:77236",,"Grégaudie",,,45.159435,0.724258,,,1,,,2,,
"MOBIITI:StopPlace:77110",,"Pey Harry",,,45.170475,0.745502,,,1,,,2,,
"MOBIITI:StopPlace:77353",,"Eyliac Ecole",,,45.161190,0.859129,,,1,,,2,,
"MOBIITI:StopPlace:77474",,"Chalagnac - Courbe",,,45.094753,0.660742,,,1,,,2,,
"MOBIITI:StopPlace:77231",,"St-Pierre ès Liens",,,45.133987,0.725269,,,1,,,2,,
"MOBIITI:StopPlace:77354",,"Milhac d'Auberoche - Ecole Maternelle",,,45.110809,0.916789,,,1,,,2,,
"MOBIITI:StopPlace:77475",,"Creyssensac - Fauchérias",,,45.066868,0.691302,,,1,,,2,,
"MOBIITI:StopPlace:77230",,"La Guillaumie",,,45.130150,0.722240,,,1,,,2,,
"MOBIITI:StopPlace:77112",,"Boisserie",,,45.167671,0.753010,,,1,,,2,,
"MOBIITI:StopPlace:77351",,"Cornille Bourg",,,45.250824,0.784679,,,1,,,2,,
"MOBIITI:StopPlace:77472",,"Creyssensac - Bourg",,,45.082363,0.661043,,,1,,,2,,
"MOBIITI:StopPlace:77233",,"La Blancherie",,,45.125229,0.727043,,,1,,,2,,
"MOBIITI:StopPlace:77111",,"Gare St-Georges",,,45.178051,0.733774,,,1,,,2,,
"MOBIITI:StopPlace:77352",,"Saint Antoine d'Auberoche - ancienne Ecole",,,45.141712,0.943088,,,1,,,2,,
"MOBIITI:StopPlace:77473",,"Chalagnac - Le Boutet",,,45.095074,0.665765,,,1,,,2,,
"MOBIITI:StopPlace:77232",,"Joseph Kessel",,,45.120842,0.720838,,,1,,,2,,
"MOBIITI:StopPlace:77118",,"Yves Péron",,,45.171391,0.774818,,,1,,,2,,
"MOBIITI:StopPlace:77239",,"Dian",,,45.168808,0.725771,,,1,,,2,,
"MOBIITI:StopPlace:77238",,"Sansonnet",,,45.150021,0.723013,,,1,,,2,,
"MOBIITI:StopPlace:77117",,"Alice Milliat",,,45.182941,0.782842,,,1,,,2,,
"MOBIITI:StopPlace:77359",,"Rue Bleriot",,,45.186539,0.691980,,,1,,,2,,
"MOBIITI:StopPlace:77119",,"Rte de Combe Neuve",,,45.172314,0.781420,,,1,,,2,,
"MOBIITI:StopPlace:77040",,"Pont de la Beauronne LEP",,,45.199268,0.676742,,,1,,,2,,
"MOBIITI:StopPlace:77282",,"Stade Pareau",,,45.175335,0.690447,,,1,,,2,,
"MOBIITI:StopPlace:77161",,"Rte de Payenché",,,45.183838,0.637490,,,1,,,1,,
"MOBIITI:StopPlace:77281",,"Pagot",,,45.177795,0.692415,,,1,,,1,,
"MOBIITI:StopPlace:77160",,"Marsac commerces",,,45.184769,0.660883,"",,1,,,2,,
"MOBIITI:StopPlace:68201",,"LR PERIGUEUX-Bibliothèque municip",,,45.188648,0.722938,"",,1,,,0,,
"MOBIITI:StopPlace:77163",,"Collège Jean Moulin",,,45.192654,0.687756,,,1,,,1,,
"MOBIITI:StopPlace:77042",,"Pont des Barris",,,45.184612,0.725246,,,1,,,1,,
"MOBIITI:StopPlace:77284",,"Les Frères Marty",,,45.185036,0.696555,,,1,,,2,,
"MOBIITI:StopPlace:77162",,"Le Sault du Chevalier",,,45.187492,0.670163,,,1,,,2,,
"MOBIITI:StopPlace:77283",,"Sarrazi",,"",45.164211,0.682913,"",,1,,,2,,
"MOBIITI:StopPlace:77280",,"Maréchal Lyautey",,,45.182793,0.695634,,,1,,,2,,
"MOBIITI:StopPlace:77048",,"La Feuilleraie",,,45.189789,0.764098,,,1,,,0,,
"MOBIITI:StopPlace:77169",,"Imp. des Brandes",,,45.176060,0.647394,,,1,,,2,,
"MOBIITI:StopPlace:77289",,"Les Brandeaux",,,45.137936,0.637871,,,1,,,2,,
"MOBIITI:StopPlace:77168",,"Payenché",,,45.174465,0.642753,,,1,,,2,,
"MOBIITI:StopPlace:77049",,"Les Mounards",,,45.188786,0.756188,,,1,,,1,,
"MOBIITI:StopPlace:77044",,"Cancale",,,45.188778,0.731098,,,1,,,2,,
"MOBIITI:StopPlace:77286",,"St-Augutre",,,45.183022,0.680283,"",,1,,,2,,
"MOBIITI:StopPlace:77165",,"Les Mondines",,,45.177956,0.660425,,,1,,,2,,
"MOBIITI:StopPlace:78134",,"La Monzie",,,45.206669,0.698247,"",,1,,,2,,
"MOBIITI:StopPlace:77043",,"Michel Grandou",,,45.190647,0.739451,,,1,,,2,,
"MOBIITI:StopPlace:77285",,"Paul Doumer",,,45.186508,0.694688,,,1,,,2,,
"MOBIITI:StopPlace:77164",,"Les Courtes",,,45.175194,0.659306,,,1,,,2,,
"MOBIITI:StopPlace:77046",,"Médiathèque",,,45.190292,0.742528,,,1,,,2,,
"MOBIITI:StopPlace:77288",,"Barbette",,,45.178783,0.685572,,,1,,,2,,
"MOBIITI:StopPlace:77167",,"Le Péladier",,,45.170200,0.655886,,,1,,,2,,
"MOBIITI:StopPlace:77045",,"L'Arsault",,,45.190327,0.735268,,,1,,,2,,
"MOBIITI:StopPlace:77287",,"Jules Vallès",,,45.181599,0.682324,,,1,,,2,,
"MOBIITI:StopPlace:77166",,"La Bouzonnie",,,45.172909,0.653445,,,1,,,2,,
"MOBIITI:StopPlace:77051",,"Les Maurilloux Écoles",,,45.189880,0.746144,,,1,,,2,,
"MOBIITI:StopPlace:77172",,"Rte des Brandes",,,45.180511,0.641902,,,1,,,2,,
"MOBIITI:StopPlace:77293",,"Razac Bourg",,,45.164089,0.602064,,,1,,,2,,
"MOBIITI:StopPlace:68552",,"LR BOULAZAC-ISLE-MANOIRE-ZI(1)",,"",45.183887,0.778959,"",,1,,,0,,
"MOBIITI:StopPlace:77171",,"La Forêt",,,45.175644,0.644673,,,1,,,2,,
"MOBIITI:StopPlace:77292",,"Halte Razac",,,45.165852,0.599665,"",,1,,,1,,
"MOBIITI:StopPlace:77053",,"Sainte Cécile",,,45.183990,0.718940,,,1,,,1,,
"MOBIITI:StopPlace:77295",,"Coursac Bourg",,,45.128574,0.639295,,,1,,,2,,
"MOBIITI:StopPlace:77174",,"Chem. des Bruyères",,,45.177479,0.649630,,,1,,,2,,
"MOBIITI:StopPlace:77294",,"Relais TV",,,45.120811,0.639847,,,1,,,2,,
"MOBIITI:StopPlace:77173",,"Fonturlure",,,45.179848,0.646173,,,1,,,2,,
"MOBIITI:StopPlace:77291",,"Font de Meaux",,,45.121529,0.644027,,,1,,,2,,
"MOBIITI:StopPlace:77170",,"1er mai",,,45.175510,0.645843,,,1,,,2,,
"MOBIITI:StopPlace:77290",,"Privats",,,45.121376,0.655244,,,1,,,2,,
"MOBIITI:StopPlace:77058",,"Hoche",,,45.181187,0.722096,,,1,,,1,,
"MOBIITI:StopPlace:77179",,"P+r Meriller",,,45.192833,0.683673,,,1,,,1,,
"MOBIITI:StopPlace:77297",,"Les Meynichoux",,,45.120075,0.658922,"",,1,,,2,,
"MOBIITI:StopPlace:77176",,"Clair Séjour",,,45.187061,0.630583,,,1,,,2,,
"MOBIITI:StopPlace:77175",,"La Cave",,,45.183548,0.628953,,,1,,,1,,
"MOBIITI:StopPlace:77296",,"Razac Salle Polyvalente",,,45.161007,0.605820,,,1,,,2,,
"MOBIITI:StopPlace:77057",,"P+r Charriéras",,,45.204090,0.802876,,,1,,,1,,
"MOBIITI:StopPlace:77299",,"Marguerite Éberentz",,,45.200886,0.712907,,,1,,,2,,
"MOBIITI:StopPlace:77178",,"Les Écoles",,,45.187660,0.634758,,,1,,,2,,
"MOBIITI:StopPlace:77298",,"Gilbert Privat",,,45.201530,0.714455,,,1,,,2,,
"MOBIITI:StopPlace:68550",,"LR BASSILLAC-Mairie (2)",,"",45.191776,0.814154,"",,1,,,0,,
"MOBIITI:StopPlace:77177",,"Rue du 8 mai",,,45.185234,0.627974,,,1,,,2,,
"MOBIITI:StopPlace:77260",,"Parking Campus",,,45.178806,0.774132,,,1,,,1,,
"MOBIITI:StopPlace:77382",,"Gravelle",,,45.172829,0.591369,,,1,,,2,,
"MOBIITI:StopPlace:77383",,"Place Francheville",,,45.182358,0.717965,,,1,,,2,,
"MOBIITI:StopPlace:77020",,"Parc des Expositions",,,45.200760,0.670437,,,1,,,1,,
"MOBIITI:StopPlace:77141",,"P+r Aquacap",,,45.204319,0.743989,,,1,,,1,,
"MOBIITI:StopPlace:77262",,"Halte ferroviaire Boulazac",,,45.171844,0.773019,,,1,,,1,,
"MOBIITI:StopPlace:77380",,"Jay de Beaufort",,,45.183712,0.712058,,,1,,,2,,
"MOBIITI:StopPlace:77140",,"P+r Trélissac les Romains",,,45.196388,0.736679,,,1,,,0,,
"MOBIITI:StopPlace:77261",,"Firmin Bouvier",,,45.177975,0.767787,,,1,,,2,,
"MOBIITI:StopPlace:77381",,"PlaceTourny",,,45.186760,0.723684,,,1,,,2,,
"MOBIITI:StopPlace:77026",,"Chancelade Écoles",,,45.204300,0.666788,,,1,,,1,,
"MOBIITI:StopPlace:77268",,"Clos-Chassaing",,,45.190388,0.715365,,,1,,,2,,
"MOBIITI:StopPlace:77147",,"Francheville-cinéma",,,45.181934,0.718575,,,1,,,2,,
"MOBIITI:StopPlace:77025",,"ZAE Marsac",,,45.192921,0.661129,,,1,,,0,,
"MOBIITI:StopPlace:77267",,"Le Petit Maine",,,45.199718,0.716929,,,1,,,1,,
"MOBIITI:StopPlace:77146",,"Église de la Cité",,,45.181801,0.713865,,,1,,,2,,
"MOBIITI:StopPlace:77028",,"Tourny Pompidou",,,45.187561,0.721850,,,1,,,2,,
"MOBIITI:StopPlace:77149",,"Mériller",,,45.192947,0.684543,,,1,,,1,,
"MOBIITI:StopPlace:77388",,"La Douze - Fon Ladouze",,,45.064373,0.857848,,,1,,,2,,
"MOBIITI:StopPlace:77027",,"Cimetière de l'Ouest",,,45.190399,0.708290,,,1,,,2,,
"MOBIITI:StopPlace:77148",,"Marival",,,45.185799,0.664486,,,1,,,1,,
"MOBIITI:StopPlace:77389",,"La Douze - La Bouchardie",,,45.070835,0.854703,,,1,,,2,,
"MOBIITI:StopPlace:77022",,"Rd-Pt Jean Jaurès",,,45.197392,0.661201,,,1,,,2,,
"MOBIITI:StopPlace:77264",,"Pl. Eugène Le Roy",,,45.195099,0.892725,,,1,,,2,,
"MOBIITI:StopPlace:77386",,"Les Moulineaux",,,45.173683,0.611163,,,1,,,2,,
"MOBIITI:StopPlace:77143",,"Privilège",,,45.199558,0.694636,,,1,,,2,,
"MOBIITI:StopPlace:77021",,"Gour de l'Arche Poste",,,45.196739,0.677455,"",,1,,,0,,
"MOBIITI:StopPlace:77387",,"La Douze - Les Versannes Gare",,,45.088951,0.857663,,,1,,,2,,
"MOBIITI:StopPlace:77263",,"La Roquette",,,45.188282,0.850618,,,1,,,2,,
"MOBIITI:StopPlace:77024",,"Les Fleurs",,,45.202515,0.663940,,,1,,,0,,
"MOBIITI:StopPlace:77145",,"Les Izards",,,45.189457,0.696834,,,1,,,1,,
"MOBIITI:StopPlace:77266",,"Restaurant Universitaire",,,45.194832,0.713338,,,1,,,2,,
"MOBIITI:StopPlace:77384",,"Place Bugeaud",,,45.184010,0.718959,,,1,,,2,,
"MOBIITI:StopPlace:77023",,"Av. Jean Jaurès",,,45.199055,0.662071,,,1,,,0,,
"MOBIITI:StopPlace:77385",,"La Roche Beaulieu",,,45.194050,0.620060,,,1,,,2,,
"MOBIITI:StopPlace:77144",,"Francis Rongieras",,,45.192726,0.698286,,,1,,,2,,
"MOBIITI:StopPlace:77029",,"Gare SNCF",,,45.187008,0.708650,,,1,,,1,,
"MOBIITI:StopPlace:77271",,"Dojo Départemental",,,45.170673,0.689047,"",,1,,,1,,
"MOBIITI:StopPlace:77393",,"La Douze - Mas Bouchard",,,45.048759,0.868881,,,1,,,2,,
"MOBIITI:StopPlace:77150",,"Fromarsac",,,45.184170,0.627400,,,1,,,2,,
"MOBIITI:StopPlace:77270",,"Lycée Agricole",,,45.174732,0.696664,,,1,,,1,,
"MOBIITI:StopPlace:77394",,"La Douze - Ecole",,,45.063709,0.866880,,,1,,,2,,
"MOBIITI:StopPlace:77273",,"Les 4 Routes",,,45.163570,0.685921,,,1,,,2,,
"MOBIITI:StopPlace:77391",,"La Douze - Les Petites Fayes",,,45.082813,0.835172,,,1,,,2,,
"MOBIITI:StopPlace:77152",,"Benoit Frachon",,,45.181530,0.771408,,,1,,,2,,
"MOBIITI:StopPlace:77030",,"Jules Ferry",,,45.195324,0.703143,,,1,,,1,,
"MOBIITI:StopPlace:77272",,"Plancheix",,,45.160908,0.686411,,,1,,,2,,
"MOBIITI:StopPlace:77151",,"Cité Administrative",,,45.180470,0.709524,,,1,,,2,,
"MOBIITI:StopPlace:77392",,"La Douze - Les Picadis",,,45.049530,0.875633,,,1,,,2,,
"MOBIITI:StopPlace:77390",,"La Douze - Ladeuil",,,45.054375,0.876361,,,1,,,2,,
"MOBIITI:StopPlace:77037",,"Les Pêcheurs",,,45.199383,0.684744,,,1,,,1,,
"MOBIITI:StopPlace:77279",,"Les Vergers",,,45.156216,0.685089,,,1,,,2,,
"MOBIITI:StopPlace:77158",,"Halte ferroviaire Marsac",,,45.186722,0.663696,,,1,,,1,,
"MOBIITI:StopPlace:77036",,"Les Sports",,,45.197300,0.680322,,,1,,,2,,
"MOBIITI:StopPlace:77278",,"Les Clairières",,,45.158459,0.683951,,,1,,,2,,
"MOBIITI:StopPlace:77039",,"Centre Hospitalier",,,45.193375,0.728646,,,1,,,1,,
"MOBIITI:StopPlace:77399",,"Jean Racine",,,45.162506,0.740035,,,1,,,2,,
"MOBIITI:StopPlace:77038",,"Maurois",,,45.184391,0.718620,,,1,,,1,,
"MOBIITI:StopPlace:77159",,"Les Bernardoux",,,45.183514,0.654151,,,1,,,2,,
"MOBIITI:StopPlace:77033",,"Voie des Stades",,,45.201462,0.693352,,,1,,,0,,
"MOBIITI:StopPlace:77275",,"Jules Védrines",,,45.188667,0.690892,,,1,,,2,,
"MOBIITI:StopPlace:77397",,"La Douze - Les Hautes Versannes",,,45.088348,0.853414,,,1,,,2,,
"MOBIITI:StopPlace:77154",,"Le Suchet",,,45.188671,0.793609,,,1,,,2,,
"MOBIITI:StopPlace:77032",,"Barrière du Toulon",,,45.197502,0.700103,,,1,,,1,,
"MOBIITI:StopPlace:77274",,"Coulounieix Bourg",,,45.157494,0.688655,,,1,,,1,,
"MOBIITI:StopPlace:77153",,"Nouvelle du Port",,,45.182793,0.705279,,,1,,,2,,
"MOBIITI:StopPlace:77398",,"La Douze - Les Martinies",,,45.089375,0.828669,,,1,,,2,,
"MOBIITI:StopPlace:77035",,"Salle Omnisports",,,45.199467,0.698126,,,1,,,1,,
"MOBIITI:StopPlace:77277",,"Chamiers Mairie",,,45.191055,0.691007,,,1,,,1,,
"MOBIITI:StopPlace:77395",,"La Douze - Casteldeche",,,45.058498,0.871378,,,1,,,2,,
"MOBIITI:StopPlace:77156",,"P+r Créavallée Nord",,,45.143192,0.698501,,,1,,,1,,
"MOBIITI:StopPlace:77034",,"Beaupuy",,,45.200493,0.683837,,,1,,,2,,
"MOBIITI:StopPlace:77276",,"Jean Labutie",,,45.187702,0.692862,,,1,,,2,,
"MOBIITI:StopPlace:77396",,"La Douze - Chateau d'Eau",,,45.063519,0.845148,,,1,,,2,,
"MOBIITI:StopPlace:77155",,"Créavallée",,,45.132309,0.702182,"",,1,,,2,,
"MOBIITI:StopPlace:68330",,"LR NOTRE DAME DE S-Créav Sud(1)",,"",45.135952,0.700275,"",,1,,,0,,
"MOBIITI:StopPlace:77084",,"Les Arums",,,45.193085,0.734594,,,1,,,2,,
"MOBIITI:StopPlace:77083",,"Les Roses",,,45.193726,0.732808,,,1,,,2,,
"MOBIITI:StopPlace:77086",,"Les Hortensias",,,45.193001,0.737277,,,1,,,2,,
"MOBIITI:StopPlace:77085",,"Les Romains Écoles",,,45.194626,0.738402,,,1,,,2,,
"MOBIITI:StopPlace:77080",,"Puy Roger",,,45.203846,0.733505,,,1,,,2,,
"MOBIITI:StopPlace:81106","Sil","Le Sîlot",,,45.197231,0.691900,,,1,,,0,,
"MOBIITI:StopPlace:77082",,"Majoulet",,,45.217640,0.740625,,,1,,,2,,
"MOBIITI:StopPlace:77081",,"Penlèbre",,,45.207275,0.735152,,,1,,,2,,
"MOBIITI:StopPlace:77088",,"Pierre de Coubertin",,,45.197319,0.731798,,,1,,,2,,
"MOBIITI:StopPlace:77087",,"Le Lac",,,45.217293,0.729036,,,1,,,1,,
"MOBIITI:StopPlace:77089",,"Les Mazades",,,45.199169,0.730410,,,1,,,2,,
"MOBIITI:StopPlace:59652",,"BOULAZAC - ZI",,,45.183815,0.775005,"",,1,,,0,,
"MOBIITI:StopPlace:77095",,"P+r Lesparat",,,45.182579,0.756898,,,1,,,2,,
"MOBIITI:StopPlace:77094",,"Lespinasse",,,45.179562,0.743784,,,1,,,2,,
"MOBIITI:StopPlace:77096",,"Croix Bertrix",,,45.178928,0.738145,,,1,,,0,,
"MOBIITI:StopPlace:77091",,"Maison de retraite Parrot",,,45.194729,0.731575,,,1,,,2,,
"MOBIITI:StopPlace:77090",,"Trélissac Les Romains",,,45.195976,0.734442,,,1,,,2,,
"MOBIITI:StopPlace:77093",,"Les Lilas Hôpital",,,45.193054,0.727347,,,1,,,1,,
"MOBIITI:StopPlace:77092",,"Champcevinel Bourg",,,45.215286,0.726114,,,1,,,1,,
"MOBIITI:StopPlace:77099",,"Léon Blum",,,45.178162,0.754376,,,1,,,2,,
"MOBIITI:StopPlace:77098",,"Max Barel",,,45.176750,0.752291,,,1,,,2,,
"MOBIITI:StopPlace:59400",,"LR CHATEAU L'EVEQUE-P+R Rond-Point(1)",,,45.243843,0.687231,"",,1,,,0,,
"MOBIITI:StopPlace:77062",,"Maison Carrée",,,45.180882,0.746500,,,1,,,1,,
"MOBIITI:StopPlace:77183",,"Les Pavillons",,,45.188843,0.631947,,,1,,,2,,
"MOBIITI:StopPlace:77061",,"Cimetière St-Georges",,,45.182808,0.740910,,,1,,,1,,
"MOBIITI:StopPlace:77182",,"Le Chambon",,,45.192345,0.625705,,,1,,,2,,
"MOBIITI:StopPlace:77064",,"Bareyrou",,,45.185349,0.782091,,,1,,,2,,
"MOBIITI:StopPlace:77185",,"Pouyaud",,,45.213921,0.751357,,,1,,,2,,
"MOBIITI:StopPlace:77063",,"La Somme",,,45.182053,0.745870,,,1,,,1,,
"MOBIITI:StopPlace:77184",,"Clément Laval",,,45.185764,0.633956,,,1,,,2,,
"MOBIITI:StopPlace:77060",,"Les Tournesols",,,45.186878,0.788755,,,1,,,2,,
"MOBIITI:StopPlace:77181",,"La Roche",,,45.190491,0.628197,,,1,,,2,,
"MOBIITI:StopPlace:77180",,"Les Champs",,,45.189651,0.630027,,,1,,,2,,
"MOBIITI:StopPlace:77187",,"Sapin d'Espagne",,,45.217884,0.744400,,,1,,,2,,
"MOBIITI:StopPlace:77065",,"Agora",,,45.182266,0.762256,,,1,,,2,,
"MOBIITI:StopPlace:77186",,"La borie",,,45.223709,0.742350,,,1,,,2,,
"MOBIITI:StopPlace:77189",,"Réjaillac",,,45.226009,0.742342,,,1,,,2,,
"MOBIITI:StopPlace:77067",,"Ambroise Croizat",,,45.183224,0.769200,,,1,,,0,,
"MOBIITI:StopPlace:77188",,"La grange",,,45.215656,0.748905,,,1,,,2,,
"MOBIITI:StopPlace:68143",,"LR PERIGUEUX-Lycée Laure Gatet",,,45.189957,0.724168,"",,1,,,0,,
"MOBIITI:StopPlace:59420",,"LR TRELISSAC-Les Jalots(1)",,"",45.188519,0.759765,"",,1,,,0,,
"MOBIITI:StopPlace:77073",,"Gabriel Lacueille",,,45.183926,0.730090,,,1,,,0,,
"MOBIITI:StopPlace:77194",,"Imp. des Grands Bruts",,,45.208065,0.764268,,,1,,,2,,
"MOBIITI:StopPlace:77072",,"Faidherbe",,,45.182526,0.726716,,,1,,,1,,
"MOBIITI:StopPlace:77193",,"Bas Pouyaud",,,45.209312,0.748267,,,1,,,2,,
"MOBIITI:StopPlace:77075",,"Beausoleil",,,45.218178,0.730765,,,1,,,2,,
"MOBIITI:StopPlace:77196",,"Maison des Compagnons",,,45.190681,0.646935,,,1,,,0,,
"MOBIITI:StopPlace:68135",,"LR PERIGUEUX-Lycée Pablo Picasso",,,45.192402,0.726822,"",,1,,,0,,
"MOBIITI:StopPlace:77195",,"Route du Pouyaud",,,45.212734,0.759095,,,1,,,2,,
"MOBIITI:StopPlace:77190",,"Les Maisons",,,45.211014,0.762291,,,1,,,2,,
"MOBIITI:StopPlace:77071",,"Pépinière",,,45.183304,0.737327,"",,1,,,1,,
"MOBIITI:StopPlace:77192",,"Jarijoux",,,45.206329,0.746291,,,1,,,2,,
"MOBIITI:StopPlace:77070",,"Talleyrand Périgord",,,45.183903,0.732996,,,1,,,1,,
"MOBIITI:StopPlace:77191",,"Les Grands Bruts",,,45.203541,0.766989,,,1,,,2,,
"MOBIITI:StopPlace:77077",,"Les Mazades Hautes",,,45.201424,0.729057,,,1,,,2,,
"MOBIITI:StopPlace:77198",,"Lespinasse Basse",,,45.195957,0.646711,,,1,,,2,,
"MOBIITI:StopPlace:77076",,"Majoral Fournier",,,45.214779,0.727898,,,1,,,2,,
"MOBIITI:StopPlace:77197",,"Chercuzac",,,45.192459,0.642076,,,1,,,2,,
"MOBIITI:StopPlace:77079",,"Couture",,,45.214268,0.736934,,,1,,,2,,
"MOBIITI:StopPlace:77078",,"Bonneau",,,45.210094,0.736049,,,1,,,2,,
"MOBIITI:StopPlace:77199",,"Les Garennes",,,45.196136,0.650201,,,1,,,2,,
"MOBIITI:StopPlace:59426",,"LR TRELISSAC-La Borie(2)",,"",45.189445,0.750254,"",,1,,,0,,
"MOBIITI:StopPlace:14610",,"LR PERIGUEUX-Place du 8 Mai (2)",,"",45.179104,0.720954,"",,1,,,0,,
"MOBIITI:StopPlace:14602",,"LR PERIGUEUX-Place Tourny (2)",,"",45.187096,0.722625,"",,1,,,0,,
"MOBIITI:StopPlace:59396",,"LR PERIGUEUX-Pont de la Beauro(1)",,"",45.199894,0.675585,"",,1,,,0,,
"MOBIITI:StopPlace:60147",,"LR FOULEIX-La Brande(1)",,,44.982395,0.661699,"",,1,,,0,,
"MOBIITI:StopPlace:60048",,"LR BOULAZAC-ISLE-MANOIRE-Lesparat (2)",,"",45.182144,0.757473,"",,1,,,0,,
"MOBIITI:StopPlace:77607",,"Cendrieux - Le Treuilh",,,45.003384,0.810138,,,1,,,2,,
"MOBIITI:StopPlace:60155",,"LR EGLISE NEUVE DE V-Le Bourg(1)",,"",45.081207,0.733666,"",,1,,,0,,
"MOBIITI:StopPlace:76738",,"LR PERIGUEUX Sevène",,"technicentre SNCF) (1",45.193520,0.705691,"",,1,,,0,,
"MOBIITI:StopPlace:77401",,"Les Violettes",,,45.171280,0.735767,,,1,,,2,,
"MOBIITI:StopPlace:77522",,"Cendrieux - Maison neuve Le Ray",,,44.988579,0.833043,,,1,,,2,,
"MOBIITI:StopPlace:77765",,"Simone Veil",,,45.183449,0.794812,,,1,,,2,,
"MOBIITI:StopPlace:77402",,"Fontaine de Mulet",,,45.102398,0.776595,,,1,,,2,,
"MOBIITI:StopPlace:77523",,"Cendrieux - Le Bourg",,,44.996067,0.822821,,,1,,,2,,
"MOBIITI:StopPlace:77641",,"Al. du Tacot",,,45.203320,0.792152,,,1,,,2,,
"MOBIITI:StopPlace:77520",,"Cendrieux - La Peyronnie",,,45.009026,0.803405,,,1,,,2,,
"MOBIITI:StopPlace:77400",,"Le Tuloup",,,45.174770,0.733250,,,1,,,2,,
"MOBIITI:StopPlace:77521",,"Salon - Le Bourg",,,45.021431,0.773003,,,1,,,2,,
"MOBIITI:StopPlace:77640",,"Av. de l'Automobile",,,45.199608,0.794914,,,1,,,2,,
"MOBIITI:StopPlace:77409",,"Coursac - Guillaumias",,,45.115829,0.617617,,,1,,,2,,
"MOBIITI:StopPlace:77407",,"94 rte de Bruyols",,,45.116554,0.622403,,,1,,,2,,
"MOBIITI:StopPlace:77528",,"Vergt - Les Vignauds",,,45.033043,0.730805,,,1,,,2,,
"MOBIITI:StopPlace:77408",,"Les Moulineries",,,45.116520,0.629120,,,1,,,2,,
"MOBIITI:StopPlace:77529",,"Salon - La Joubertie",,,45.034786,0.801433,,,1,,,2,,
"MOBIITI:StopPlace:77405",,"Giratou",,,45.141579,0.802730,,,1,,,2,,
"MOBIITI:StopPlace:77526",,"Salon - Larmandie",,,45.026108,0.777350,,,1,,,2,,
"MOBIITI:StopPlace:77527",,"Salon - Lasselet",,,45.034973,0.788371,,,1,,,2,,
"MOBIITI:StopPlace:77403",,"La Tuiliere",,,45.110378,0.774718,,,1,,,2,,
"MOBIITI:StopPlace:77766",,"Puyssembert",,,45.049095,0.610455,,,1,,,2,,
"MOBIITI:StopPlace:77524",,"Veyrines de Vergt - La Dentelle",,,45.004749,0.756587,,,1,,,2,,
"MOBIITI:StopPlace:77404",,"Marsaneix Bourg",,,45.098152,0.784034,,,1,,,2,,
"MOBIITI:StopPlace:77767",,"Parking stade",,,45.304203,0.864054,,,1,,,2,,
"MOBIITI:StopPlace:77525",,"Veyrines de Vergt - Le Grand But",,,44.994808,0.762707,,,1,,,2,,
"MOBIITI:StopPlace:77412",,"Les bois du Moulin",,,45.169415,0.605165,,,1,,,2,,
"MOBIITI:StopPlace:77533",,"Lacropte - Petit Paradis",,,45.047779,0.828124,,,1,,,2,,
"MOBIITI:StopPlace:77413",,"Jean Moulin",,,45.192402,0.687575,"",,1,,,2,,
"MOBIITI:StopPlace:77534",,"Vergt - Ecole primaire",,,45.026310,0.720626,,,1,,,2,,
"MOBIITI:StopPlace:77410",,"Lauglusie",,,45.124817,0.668253,,,1,,,2,,
"MOBIITI:StopPlace:77531",,"Lacropte - La Sigonie",,,45.042091,0.809307,,,1,,,2,,
"MOBIITI:StopPlace:77411",,"Petit Cerf",,,45.142609,0.677264,,,1,,,2,,
"MOBIITI:StopPlace:77532",,"Lacropte - La Durantie",,,45.042408,0.815490,,,1,,,2,,
"MOBIITI:StopPlace:77530",,"Lacropte - Les Jauberties",,,45.039333,0.803974,,,1,,,2,,
"MOBIITI:StopPlace:77418",,"Preyssac",,,45.260433,0.703892,,,1,,,2,,
"MOBIITI:StopPlace:77539",,"Place Hoche",,,45.181217,0.722041,,,1,,,2,,
"MOBIITI:StopPlace:77419",,"Gour de l'Arche-LEP",,,45.199913,0.675416,,,1,,,2,,
"MOBIITI:StopPlace:77416",,"Granges Crolus",,,45.252106,0.690491,,,1,,,2,,
"MOBIITI:StopPlace:77537",,"Lacropte - Les Forêts",,,45.078472,0.815525,,,1,,,2,,
"MOBIITI:StopPlace:77414",,"Les Moulineaux - La foret",,,45.176689,0.616612,,,1,,,2,,
"MOBIITI:StopPlace:77535",,"Salon - Château Missier",,,45.052025,0.788121,,,1,,,2,,
"MOBIITI:StopPlace:77415",,"Les Armagnacs",,,45.249283,0.686690,,,1,,,2,,
"MOBIITI:StopPlace:77536",,"Lacropte - Parking Salle des Fêtes",,,45.034946,0.829619,,,1,,,2,,
"MOBIITI:StopPlace:77500",,"Saint Amand de Vergt - La Crx de l'hirondelle",,,44.980495,0.702491,,,1,,,2,,
"MOBIITI:StopPlace:77501",,"Saint Mayme de Pereyrol - lac blanc",,,45.018745,0.636335,,,1,,,2,,
"MOBIITI:StopPlace:77509",,"Eglise Neuve de Vergt - Les Combes",,,45.084789,0.725477,,,1,,,2,,
"MOBIITI:StopPlace:77506",,"Breuilh - Mairie",,,45.056915,0.753458,,,1,,,2,,
"MOBIITI:StopPlace:77507",,"Breuilh - Les Landes",,,45.071564,0.738113,,,1,,,2,,
"MOBIITI:StopPlace:77504",,"Grun - Cimetière",,,45.056084,0.635779,,,1,,,2,,
"MOBIITI:StopPlace:77505",,"Bourrou - Bigot",,,45.040035,0.608651,,,1,,,2,,
"MOBIITI:StopPlace:77502",,"Saint Mayme de Pereyrol - bourg",,,45.014507,0.647083,,,1,,,2,,
"MOBIITI:StopPlace:77503",,"Grun-Bordas - Mairie",,,45.046562,0.652737,,,1,,,2,,
"MOBIITI:StopPlace:77511",,"Eglise Neuve de Vergt - Le Bost",,,45.084347,0.735706,,,1,,,2,,
"MOBIITI:StopPlace:77512",,"Eglise Neuve de Vergt - La Berthomarie",,,45.092564,0.742950,,,1,,,2,,
"MOBIITI:StopPlace:77510",,"Chalagnac - Les Bitarelles",,,45.100403,0.694366,,,1,,,2,,
"MOBIITI:StopPlace:77519",,"La Douze - Les Pradelles",,,45.051613,0.860153,,,1,,,2,,
"MOBIITI:StopPlace:77517",,"La Douze - Lot. le Breuilh",,,45.063553,0.864191,,,1,,,2,,
"MOBIITI:StopPlace:2565",,"LR TRELISSAC-Le Bourg",,,45.194981,0.779875,"",,1,,,0,,
"MOBIITI:StopPlace:77518",,"La Douze - Les Révélies",,,45.084023,0.857898,,,1,,,2,,
"MOBIITI:StopPlace:77515",,"Lacropte - Saute Haute",,,45.063408,0.830941,,,1,,,2,,
"MOBIITI:StopPlace:77516",,"La Douze - PLace de la Poste",,,45.061253,0.864637,,,1,,,2,,
"MOBIITI:StopPlace:77513",,"Chalagnac - Les Granges",,,45.094212,0.676121,,,1,,,2,,
"MOBIITI:StopPlace:77514",,"Lacropte - Fontroubade Entrepôt",,,45.061161,0.819819,,,1,,,2,,
"MOBIITI:Quay:112014","ITi01","Imprimerie du Timbre",,"poteau",45.181507,0.769810,,,0,"MOBIITI:StopPlace:77259",,2,,
"MOBIITI:Quay:112256","AgoGa01","Agonac Gare",,,45.287010,0.747211,,,0,"MOBIITI:StopPlace:77420",,2,,
"MOBIITI:Quay:112013","Sul01","Mounet Sully",,"abribus MDO",45.193810,0.691448,,,0,"MOBIITI:StopPlace:77258",,1,,
"MOBIITI:Quay:112255","GouAr02","Gour de l'Arche-LEP",,,45.200073,0.675337,,,0,"MOBIITI:StopPlace:77419",,2,,
"MOBIITI:Quay:112016","PCa01","Parking Campus",,"poteau",45.178806,0.774132,,,0,"MOBIITI:StopPlace:77260",,1,,
"MOBIITI:Quay:112258","Agofe01","Agonac - Salle des fetes",,,45.289005,0.752599,,,0,"MOBIITI:StopPlace:77422",,2,,
"MOBIITI:Quay:112015","ITi02","Imprimerie du Timbre",,"poteau",45.181561,0.769697,,,0,"MOBIITI:StopPlace:77259",,2,,
"MOBIITI:Quay:112257","AgonB01","Agonac Bourg",,,45.291321,0.751075,,,0,"MOBIITI:StopPlace:77421",,2,,
"MOBIITI:Quay:112010","Ver03","Jules Verne",,"poteau",45.190887,0.694794,,,0,"MOBIITI:StopPlace:77257",,1,,
"MOBIITI:Quay:112252","ChEvB02","Chateau l'Eveque Bourg",,,45.244251,0.686893,"",,0,"MOBIITI:StopPlace:59400",,2,,
"MOBIITI:Quay:112251","ChEvB01","Chateau l'Eveque Bourg",,,45.243904,0.686979,"",,0,"MOBIITI:StopPlace:59400",,2,,
"MOBIITI:Quay:112493","CenTr1","Cendrieux - Le Treuilh",,,45.003384,0.810138,,,0,"MOBIITI:StopPlace:77607",,2,,
"MOBIITI:Quay:112012","Sul02","Mounet Sully",,"abribus MDO",45.193855,0.691597,,,0,"MOBIITI:StopPlace:77258",,1,,
"MOBIITI:Quay:112254","GouAr01","Gour de l'Arche-LEP",,,45.199749,0.675495,,,0,"MOBIITI:StopPlace:77419",,2,,
"MOBIITI:Quay:112011","Ver04","Jules Verne",,"poteau",45.190395,0.694807,,,0,"MOBIITI:StopPlace:77257",,1,,
"MOBIITI:Quay:112253","Preys01","Preyssac",,,45.260433,0.703892,,,0,"MOBIITI:StopPlace:77418",,2,,
"MOBIITI:Quay:112018","FBo01","Firmin Bouvier",,"poteau",45.178013,0.767814,,,0,"MOBIITI:StopPlace:77261",,2,,
"MOBIITI:Quay:112017","FBo02","Firmin Bouvier",,"poteau",45.177933,0.767760,,,0,"MOBIITI:StopPlace:77261",,2,,
"MOBIITI:Quay:112259","Broud02","Les Broudissoux",,,45.263428,0.751477,,,0,"MOBIITI:StopPlace:77423",,2,,
"MOBIITI:Quay:112019","Hal01","Halte ferroviaire Boulazac",,"abribus MDO",45.171844,0.773019,,,0,"MOBIITI:StopPlace:77262",,1,,
"MOBIITI:Quay:112250","GraCr01","Granges Crolus",,,45.252106,0.690491,,,0,"MOBIITI:StopPlace:77416",,2,,
"MOBIITI:Quay:112003","COU02","Courbet",,"poteau",45.181332,0.707222,,,0,"MOBIITI:StopPlace:77254",,2,,
"MOBIITI:Quay:112245","JeaMo03","Jean Moulin",,,45.192986,0.687890,"",,0,"MOBIITI:StopPlace:77413",,2,,
"MOBIITI:Quay:112002","Dur01","Charles Durand",,"poteau",45.179619,0.715664,,,0,"MOBIITI:StopPlace:77253",,2,,
"MOBIITI:Quay:112244","JeaMo01","Jean Moulin",,,45.192039,0.687866,"",,0,"MOBIITI:StopPlace:77413",,2,,
"MOBIITI:Quay:112005","cam01","Campniac",,"poteau",45.176643,0.713326,,,0,"MOBIITI:StopPlace:77255",,2,,
"MOBIITI:Quay:112247","MouFo02","Les Moulineaux - La foret",,,45.176712,0.616536,,,0,"MOBIITI:StopPlace:77414",,2,,
"MOBIITI:Quay:112004","COU01","Courbet",,"poteau",45.181602,0.706994,,,0,"MOBIITI:StopPlace:77254",,2,,
"MOBIITI:Quay:112246","JeaMo02","Jean Moulin",,,45.192181,0.686968,"",,0,"MOBIITI:StopPlace:77413",,2,,
"MOBIITI:Quay:112241","PtCer01","Petit Cerf",,,45.142609,0.677264,,,0,"MOBIITI:StopPlace:77411",,2,,
"MOBIITI:Quay:112240","Laugl02","Lauglusie",,,45.124817,0.668253,,,0,"MOBIITI:StopPlace:77410",,2,,
"MOBIITI:Quay:112001","Dur02","Charles Durand",,"poteau",45.179550,0.715664,,,0,"MOBIITI:StopPlace:77253",,2,,
"MOBIITI:Quay:112243","BoisM02","Les bois du Moulin",,,45.169346,0.604952,,,0,"MOBIITI:StopPlace:77412",,2,,
"MOBIITI:Quay:112000","Hel01","Héliodore",,"poteau",45.145351,0.746190,,,0,"MOBIITI:StopPlace:77252",,2,,
"MOBIITI:Quay:112242","BoisM01","Les bois du Moulin",,,45.169483,0.605378,,,0,"MOBIITI:StopPlace:77412",,2,,
"MOBIITI:Quay:112007","Cit01","Pont de la Cité",,"abribus SES",45.184902,0.699493,,,0,"MOBIITI:StopPlace:77256",,2,,
"MOBIITI:Quay:112249","Armag01","Les Armagnacs",,,45.249283,0.686690,,,0,"MOBIITI:StopPlace:77415",,2,,
"MOBIITI:Quay:112006","Cit02","Pont de la Cité",,"poteau",45.185207,0.700039,,,0,"MOBIITI:StopPlace:77256",,1,,
"MOBIITI:Quay:112248","MouFo01","Les Moulineaux - La foret",,,45.176666,0.616687,,,0,"MOBIITI:StopPlace:77414",,2,,
"MOBIITI:Quay:112009","Ver02","Jules Verne",,"poteau",45.190060,0.694852,,,0,"MOBIITI:StopPlace:77257",,1,,
"MOBIITI:Quay:112008","Ver01","Jules Verne",,"abribus MDO",45.190140,0.694026,,,0,"MOBIITI:StopPlace:77257",,1,,
"MOBIITI:Quay:112234","Girat01","Giratou",,,45.141579,0.802730,,,0,"MOBIITI:StopPlace:77405",,2,,
"MOBIITI:Quay:112233","Mrx01","Marsaneix Bourg",,"abribus SES",45.098152,0.784034,,,0,"MOBIITI:StopPlace:77404",,2,,
"MOBIITI:Quay:112236","CtrCo01","Centre de Communication",,,45.179966,0.724813,,,0,"MOBIITI:StopPlace:2839",,2,,
"MOBIITI:Quay:112235","CtrCo02","Centre de Communication",,,45.179935,0.724549,,,0,"MOBIITI:StopPlace:2839",,2,,
"MOBIITI:Quay:112230","FontM01","Fontaine de Mulet",,,45.102398,0.776595,,,0,"MOBIITI:StopPlace:77402",,2,,
"MOBIITI:Quay:112232","Tuili02","La Tuiliere",,,45.110420,0.774645,,,0,"MOBIITI:StopPlace:77403",,2,,
"MOBIITI:Quay:112231","Tuili01","La Tuiliere",,,45.110336,0.774790,,,0,"MOBIITI:StopPlace:77403",,2,,
"MOBIITI:Quay:112238","Mneri01","Les Moulineries",,,45.116520,0.629120,,,0,"MOBIITI:StopPlace:77408",,2,,
"MOBIITI:Quay:112237","rteBr01","94 rte de Bruyols",,,45.116554,0.622403,,,0,"MOBIITI:StopPlace:77407",,2,,
"MOBIITI:Quay:112239","CouGu01","Coursac - Guillaumias",,,45.115829,0.617617,,,0,"MOBIITI:StopPlace:77409",,2,,
"MOBIITI:Quay:112223","DouMA01","La Douze - Les Martinies",,,45.089375,0.828669,,,0,"MOBIITI:StopPlace:77398",,2,,
"MOBIITI:Quay:112222","DouHv1","La Douze - Les Hautes Versannes",,,45.088348,0.853414,,,0,"MOBIITI:StopPlace:77397",,2,,
"MOBIITI:Quay:112225","Rac02","Jean Racine",,"poteau",45.162689,0.740030,,,0,"MOBIITI:StopPlace:77399",,2,,
"MOBIITI:Quay:112224","Rac01","Jean Racine",,"poteau",45.162319,0.740040,,,0,"MOBIITI:StopPlace:77399",,2,,
"MOBIITI:Quay:112221","DouCh1","La Douze - Chateau d'Eau",,,45.063519,0.845148,,,0,"MOBIITI:StopPlace:77396",,2,,
"MOBIITI:Quay:112220","DouCa1","La Douze - Casteldeche",,,45.058498,0.871378,,,0,"MOBIITI:StopPlace:77395",,2,,
"MOBIITI:Quay:112227","TUL01","Le Tuloup",,"poteau",45.174580,0.733290,,,0,"MOBIITI:StopPlace:77400",,2,,
"MOBIITI:Quay:112226","TUL02","Le Tuloup",,"poteau",45.174961,0.733210,,,0,"MOBIITI:StopPlace:77400",,2,,
"MOBIITI:Quay:112229","VIO01","Les Violettes",,"poteau",45.171268,0.735770,,,0,"MOBIITI:StopPlace:77401",,2,,
"MOBIITI:Quay:112228","VIO02","Les Violettes",,"poteau",45.171291,0.735764,,,0,"MOBIITI:StopPlace:77401",,2,,
"MOBIITI:Quay:112058","Par02","Stade Pareau",,"poteau",45.175220,0.690390,,,0,"MOBIITI:StopPlace:77282",,2,,
"MOBIITI:Quay:112057","Par01","Stade Pareau",,"abribus SES",45.175446,0.690504,,,0,"MOBIITI:StopPlace:77282",,2,,
"MOBIITI:Quay:112299","Piles01","Les Piles",,,45.252258,0.811290,"",,0,"MOBIITI:StopPlace:77454",,2,,
"MOBIITI:Quay:112059","Sar01","Sarrazi",,"",45.164211,0.682913,"",,0,"MOBIITI:StopPlace:77283",,2,,
"MOBIITI:Quay:112054","Lya02","Maréchal Lyautey",,"poteau",45.182934,0.695615,,,0,"MOBIITI:StopPlace:77280",,2,,
"MOBIITI:Quay:112296","SorBo1","Sorges - Bourg Place Mallet",,,45.307835,0.871003,,,0,"MOBIITI:StopPlace:77451",,2,,
"MOBIITI:Quay:112053","Lya01","Maréchal Lyautey",,"poteau",45.182652,0.695653,,,0,"MOBIITI:StopPlace:77280",,2,,
"MOBIITI:Quay:112295","SorCh1","Sorges - Les Chabannes",,,45.285629,0.850295,,,0,"MOBIITI:StopPlace:77450",,2,,
"MOBIITI:Quay:112056","Pag01","Pagot",,"abribus MDO",45.177830,0.692580,,,0,"MOBIITI:StopPlace:77281",,1,,
"MOBIITI:Quay:112298","Lacom01","Lacombe",,,45.236084,0.784248,,,0,"MOBIITI:StopPlace:77453",,2,,
"MOBIITI:Quay:112055","Pag02","Pagot",,"Abribus MDO",45.177761,0.692250,,,0,"MOBIITI:StopPlace:77281",,1,,
"MOBIITI:Quay:112297","Lumin01","La Luminade",,,45.241982,0.782296,,,0,"MOBIITI:StopPlace:77452",,2,,
"MOBIITI:Quay:112050","CLA02","Les Clairières",,"abribus SES",45.158379,0.683677,,,0,"MOBIITI:StopPlace:77278",,2,,
"MOBIITI:Quay:112292","SorCl1","Sorges - Le Clapier",,,45.300648,0.860647,,,0,"MOBIITI:StopPlace:77447",,2,,
"MOBIITI:Quay:116891","Sil01","Le Sîlot",,,45.197231,0.691900,,,0,"MOBIITI:StopPlace:81106",,0,,
"MOBIITI:Quay:112291","StAug02","St Augutre",,,45.183022,0.680283,"",,0,"MOBIITI:StopPlace:77286",,2,,
"MOBIITI:Quay:112052","VER01","Les Vergers",,"poteau",45.156300,0.684949,,,0,"MOBIITI:StopPlace:77279",,2,,
"MOBIITI:Quay:112294","Sor4r1","Sorges - Les 4 routes",,,45.268536,0.833455,,,0,"MOBIITI:StopPlace:77449",,2,,
"MOBIITI:Quay:116890","BreLa2","Breuilh - Les Landes",,,45.071484,0.738029,,,0,"MOBIITI:StopPlace:77507",,0,,
"MOBIITI:Quay:112051","VER02","Les Vergers",,"abribus SES",45.156128,0.685228,,,0,"MOBIITI:StopPlace:77279",,2,,
"MOBIITI:Quay:112293","SorPa1","Sorges - Les Palissous",,,45.308674,0.865032,,,0,"MOBIITI:StopPlace:77448",,2,,
"MOBIITI:Quay:112290","Andri01","Les Andrieux",,,45.145409,0.665576,,,0,"MOBIITI:StopPlace:77445",,2,,
"MOBIITI:Quay:112047","Vil01","Chamiers Mairie",,"abribus MDO",45.190987,0.690962,,,0,"MOBIITI:StopPlace:77277",,1,,
"MOBIITI:Quay:112289","PlCer01","Place du Cerf",,,45.145157,0.690422,,,0,"MOBIITI:StopPlace:77444",,2,,
"MOBIITI:Quay:112046","LAB02","Jean Labutie",,"poteau",45.187691,0.692767,,,0,"MOBIITI:StopPlace:77276",,2,,
"MOBIITI:Quay:112049","CLA01","Les Clairières",,"poteau",45.158543,0.684224,,,0,"MOBIITI:StopPlace:77278",,2,,
"MOBIITI:Quay:112048","Vil02","Chamiers Mairie",,"poteau",45.191128,0.691051,,,0,"MOBIITI:StopPlace:77277",,1,,
"MOBIITI:Quay:112043","VED01","Jules Védrines",,"poteau",45.188618,0.690911,,,0,"MOBIITI:StopPlace:77275",,2,,
"MOBIITI:Quay:112042","CLB02","Coulounieix Bourg",,"poteau",45.157398,0.688979,,,0,"MOBIITI:StopPlace:77274",,1,,
"MOBIITI:Quay:112284","EglHt02","Les Eglantiers Hauts",,,45.151978,0.688909,,,0,"MOBIITI:StopPlace:77441",,2,,
"MOBIITI:Quay:112045","LAB01","Jean Labutie",,"poteau",45.187710,0.692958,,,0,"MOBIITI:StopPlace:77276",,2,,
"MOBIITI:Quay:112044","VED02","Jules Védrines",,"poteau",45.188717,0.690873,,,0,"MOBIITI:StopPlace:77275",,2,,
"MOBIITI:Quay:112281","HAG02","Les Hauts de l'Agora",,"poteau",45.178108,0.756461,,,0,"MOBIITI:StopPlace:77439",,2,,
"MOBIITI:Quay:112280","HAG01","Les Hauts de l'Agora",,"poteau",45.177704,0.755787,,,0,"MOBIITI:StopPlace:77439",,2,,
"MOBIITI:Quay:112041","CLB01","Coulounieix Bourg",,"abribus MDO",45.157585,0.688330,,,0,"MOBIITI:StopPlace:77274",,1,,
"MOBIITI:Quay:112283","EglHt01","Les Eglantiers Hauts",,,45.152351,0.688941,,,0,"MOBIITI:StopPlace:77441",,2,,
"MOBIITI:Quay:112040","4rt01","Les 4 Routes",,"abribus SES",45.163254,0.686118,,,0,"MOBIITI:StopPlace:77273",,2,,
"MOBIITI:Quay:112282","EcJCu01","Ecole Joliot Curie",,,45.184425,0.745740,,,0,"MOBIITI:StopPlace:77440",,2,,
"MOBIITI:Quay:112036","Doj04","Dojo Départemental",,"poteau",45.170795,0.689311,"",,0,"MOBIITI:StopPlace:77271",,1,,
"MOBIITI:Quay:112278","CrxBx02","La Croix Bertrix",,,45.178471,0.738829,,,0,"MOBIITI:StopPlace:77438",,2,,
"MOBIITI:Quay:112035","Doj02","Dojo Départemental",,"Abribus MDO",45.170788,0.688775,"",,0,"MOBIITI:StopPlace:77271",,1,,
"MOBIITI:Quay:112277","Jalaj01","Les Jalajoux",,,45.243114,0.621209,,,0,"MOBIITI:StopPlace:77437",,2,,
"MOBIITI:Quay:112038","PLA02","Plancheix",,"poteau",45.160889,0.686322,,,0,"MOBIITI:StopPlace:77272",,2,,
"MOBIITI:Quay:112037","PLA01","Plancheix",,"poteau",45.160927,0.686500,,,0,"MOBIITI:StopPlace:77272",,2,,
"MOBIITI:Quay:112279","CrxBx01","La Croix Bertrix",,,45.178085,0.738971,,,0,"MOBIITI:StopPlace:77438",,2,,
"MOBIITI:Quay:112032","LYA01","Lycée Agricole",,"abribus MDO",45.174870,0.697026,,,0,"MOBIITI:StopPlace:77270",,1,,
"MOBIITI:Quay:112274","HanMu01","Hangar Municipal",,,45.233883,0.616259,,,0,"MOBIITI:StopPlace:77434",,2,,
"MOBIITI:Quay:112273","CrxBi01","Croix de Biras",,,45.228527,0.619961,,,0,"MOBIITI:StopPlace:77433",,2,,
"MOBIITI:Quay:112034","Doj01","Dojo Départemental",,"poteau",45.170444,0.689055,"",,0,"MOBIITI:StopPlace:77271",,1,,
"MOBIITI:Quay:112276","Genet01","Les Genets",,,45.218163,0.618047,,,0,"MOBIITI:StopPlace:77436",,2,,
"MOBIITI:Quay:112033","LYA02","Lycée Agricole",,"poteau",45.174591,0.696302,,,0,"MOBIITI:StopPlace:77270",,1,,
"MOBIITI:Quay:112275","PuyMe01","Le Puy de Merlande",,,45.242821,0.637037,,,0,"MOBIITI:StopPlace:77435",,2,,
"MOBIITI:Quay:112039","4rt02","Les 4 Routes",,"poteau",45.163883,0.685724,,,0,"MOBIITI:StopPlace:77273",,2,,
"MOBIITI:Quay:112270","Bruni01","Les Brunies",,,45.216351,0.634672,,,0,"MOBIITI:StopPlace:77430",,2,,
"MOBIITI:Quay:112030","CCh01","Clos-Chassaing",,"poteau",45.190399,0.715257,,,0,"MOBIITI:StopPlace:77268",,2,,
"MOBIITI:Quay:112272","ChGoE01","Chapelle Gonaguet Ecole",,,45.231491,0.610013,,,0,"MOBIITI:StopPlace:77432",,2,,
"MOBIITI:Quay:112271","Epice01","Epicerie",,,45.229794,0.616363,,,0,"MOBIITI:StopPlace:77431",,2,,
"MOBIITI:Quay:112025","Ru01","Restaurant Universitaire",,"poteau",45.194801,0.713261,,,0,"MOBIITI:StopPlace:77266",,2,,
"MOBIITI:Quay:112267","Sourb02","Sourbarie",,,45.242401,0.726997,,,0,"MOBIITI:StopPlace:77427",,2,,
"MOBIITI:Quay:112024","Bab02","Bassillac Bourg",,"poteau",45.191689,0.814190,,,0,"MOBIITI:StopPlace:68550",,2,,
"MOBIITI:Quay:112266","Sourb01","Sourbarie",,,45.241932,0.726002,,,0,"MOBIITI:StopPlace:77427",,2,,
"MOBIITI:Quay:112027","PMa02","Le Petit Maine",,"poteau",45.199852,0.716986,,,0,"MOBIITI:StopPlace:77267",,1,,
"MOBIITI:Quay:112269","kourl01","Kourlouze",,,45.220066,0.629397,,,0,"MOBIITI:StopPlace:77429",,2,,
"MOBIITI:Quay:112026","Ru02","Restaurant Universitaire",,"poteau",45.194862,0.713414,,,0,"MOBIITI:StopPlace:77266",,2,,
"MOBIITI:Quay:112268","BasVe01","Les Basses Veyrinas",,,45.212002,0.614564,,,0,"MOBIITI:StopPlace:77428",,2,,
"MOBIITI:Quay:112021","Roq01","La Roquette",,"poteau",45.188389,0.850552,,,0,"MOBIITI:StopPlace:77263",,2,,
"MOBIITI:Quay:112263","Gran01","Les Granges",,,45.216034,0.702989,,,0,"MOBIITI:StopPlace:77425",,2,,
"MOBIITI:Quay:112020","Roq02","La Roquette",,"poteau",45.188171,0.850683,,,0,"MOBIITI:StopPlace:77263",,2,,
"MOBIITI:Quay:112262","Poul02","Le Pouliquet",,,45.267754,0.749910,,,0,"MOBIITI:StopPlace:77424",,2,,
"MOBIITI:Quay:112023","Bab01","Bassillac Bourg",,"poteau",45.191807,0.814033,,,0,"MOBIITI:StopPlace:68550",,2,,
"MOBIITI:Quay:112265","ToU02","Le Toulon",,,45.203484,0.697014,,,0,"MOBIITI:StopPlace:77426",,2,,
"MOBIITI:Quay:112022","EuL01","Pl. Eugène Le Roy",,"poteau",45.195099,0.892725,,,0,"MOBIITI:StopPlace:77264",,2,,
"MOBIITI:Quay:112264","ToU01","Le Toulon",,,45.203625,0.696836,,,0,"MOBIITI:StopPlace:77426",,2,,
"MOBIITI:Quay:112029","CCh02","Clos-Chassaing",,"abribus double DECAUX",45.190372,0.715473,,,0,"MOBIITI:StopPlace:77268",,2,,
"MOBIITI:Quay:112028","PMa01","Le Petit Maine",,"poteau",45.199585,0.716872,,,0,"MOBIITI:StopPlace:77267",,1,,
"MOBIITI:Quay:112261","Poul01","Le Pouliquet",,,45.267891,0.749722,,,0,"MOBIITI:StopPlace:77424",,2,,
"MOBIITI:Quay:112260","Broud01","Les Broudissoux",,,45.262558,0.750985,,,0,"MOBIITI:StopPlace:77423",,2,,
"MOBIITI:Quay:111794","Gou02","Les Gourdoux",,"poteau",45.214848,0.786629,,,0,"MOBIITI:StopPlace:77134",,2,,
"MOBIITI:Quay:111793","Gou01","Les Gourdoux",,"poteau",45.215233,0.786223,,,0,"MOBIITI:StopPlace:77134",,2,,
"MOBIITI:Quay:111796","MaJ01","Maréchal Juin",,"poteau",45.185188,0.711709,,,0,"MOBIITI:StopPlace:77135",,2,,
"MOBIITI:Quay:111795","MaJ02","Maréchal Juin",,"poteau",45.185226,0.711480,,,0,"MOBIITI:StopPlace:77135",,2,,
"MOBIITI:Quay:111790","LIB02","Le Libournet",,"poteau",45.198673,0.787376,,,0,"MOBIITI:StopPlace:77132",,2,,
"MOBIITI:Quay:111792","JJa01","Trélissac Jean Jaurès",,"poteau",45.205700,0.786242,,,0,"MOBIITI:StopPlace:77133",,2,,
"MOBIITI:Quay:111791","JJa02","Trélissac Jean Jaurès",,"poteau",45.205814,0.786413,,,0,"MOBIITI:StopPlace:77133",,2,,
"MOBIITI:Quay:111798","Cde01","P+r Chancelade",,"poteau",45.199261,0.664812,,,0,"MOBIITI:StopPlace:77137",,2,,
"MOBIITI:Quay:111797","Bad01","Badinter",,"abribus DECAUX",45.183983,0.717181,,,0,"MOBIITI:StopPlace:77136",,2,,
"MOBIITI:Quay:111799","Cde02","P+r Chancelade",,"poteau",45.199284,0.664713,,,0,"MOBIITI:StopPlace:77137",,2,,
"MOBIITI:Quay:111783","IGP02","Gabriel Péri",,"poteau",45.209736,0.791994,,,0,"MOBIITI:StopPlace:77129",,2,,
"MOBIITI:Quay:111782","BER02","La Berthonie",,"poteau",45.212631,0.791791,,,0,"MOBIITI:StopPlace:77128",,2,,
"MOBIITI:Quay:111785","Cav02","Cavillac",,"poteau",45.203510,0.787074,,,0,"MOBIITI:StopPlace:77130",,2,,
"MOBIITI:Quay:111784","IGP01","Gabriel Péri",,"poteau",45.209808,0.792096,,,0,"MOBIITI:StopPlace:77129",,2,,
"MOBIITI:Quay:111781","BER01","La Berthonie",,"poteau",45.212578,0.792083,,,0,"MOBIITI:StopPlace:77128",,2,,
"MOBIITI:Quay:111780","MAr02","Les Maravals",,"poteau",45.208481,0.787490,,,0,"MOBIITI:StopPlace:77127",,2,,
"MOBIITI:Quay:111787","Pra01","Verte Prairie",,"abribus SES",45.200817,0.788600,,,0,"MOBIITI:StopPlace:77131",,2,,
"MOBIITI:Quay:111786","Cav01","Cavillac",,"poteau",45.203312,0.787227,,,0,"MOBIITI:StopPlace:77130",,2,,
"MOBIITI:Quay:111789","LIB01","Le Libournet",,"abribus SES",45.198597,0.786935,,,0,"MOBIITI:StopPlace:77132",,2,,
"MOBIITI:Quay:111788","Pra02","Verte Prairie",,"poteau",45.201054,0.788613,,,0,"MOBIITI:StopPlace:77131",,2,,
"MOBIITI:Quay:111772","CFo03","Campus de la Formation",,"poteau",45.181553,0.777872,,,0,"MOBIITI:StopPlace:77122",,1,,
"MOBIITI:Quay:111771","ChB01","Bauchaud",,"poteau",45.175564,0.787583,,,0,"MOBIITI:StopPlace:77121",,2,,
"MOBIITI:Quay:111774","les01","Lescure",,"poteau",45.172916,0.773865,,,0,"MOBIITI:StopPlace:77123",,1,,
"MOBIITI:Quay:111773","CFo04","Campus de la Formation",,"poteau",45.181602,0.778196,,,0,"MOBIITI:StopPlace:77122",,2,,
"MOBIITI:Quay:111770","ChB02","Bauchaud",,"poteau",45.176201,0.786247,,,0,"MOBIITI:StopPlace:77121",,2,,
"MOBIITI:Quay:111779","mars-01","Les Maravals",,"poteau",45.208420,0.787250,,,0,"MOBIITI:StopPlace:77127",,2,,
"MOBIITI:Quay:111776","Pau01","Paumarélie",,"poteau",45.203533,0.778339,,,0,"MOBIITI:StopPlace:77125",,1,,
"MOBIITI:Quay:111775","JAu01","Jaunour",,"poteau",45.180656,0.796190,,,0,"MOBIITI:StopPlace:77124",,1,,
"MOBIITI:Quay:111778","Pin01","Les Pinots",,"poteau",45.206612,0.776916,,,0,"MOBIITI:StopPlace:77126",,1,,
"MOBIITI:Quay:111777","Pau02","Paumarélie",,"poteau",45.203651,0.778410,,,0,"MOBIITI:StopPlace:77125",,1,,
"MOBIITI:Quay:112212","DouVG1","La Douze - Les Versannes Gare",,,45.088951,0.857663,,,0,"MOBIITI:StopPlace:77387",,2,,
"MOBIITI:Quay:112211","Mouli02","Les Moulineaux",,,45.173626,0.611193,,,0,"MOBIITI:StopPlace:77386",,2,,
"MOBIITI:Quay:112214","DouBO1","La Douze - La Bouchardie",,,45.070835,0.854703,,,0,"MOBIITI:StopPlace:77389",,2,,
"MOBIITI:Quay:112213","DouFo1","La Douze - Fon Ladouze",,,45.064373,0.857848,,,0,"MOBIITI:StopPlace:77388",,2,,
"MOBIITI:Quay:112210","Mouli01","Les Moulineaux",,,45.173740,0.611132,,,0,"MOBIITI:StopPlace:77386",,2,,
"MOBIITI:Quay:112219","DouEc1","La Douze - Ecole",,,45.063709,0.866880,,,0,"MOBIITI:StopPlace:77394",,2,,
"MOBIITI:Quay:112216","DouFa01","La Douze - Les Petites Fayes",,,45.082813,0.835172,,,0,"MOBIITI:StopPlace:77391",,2,,
"MOBIITI:Quay:112215","DouLa1","La Douze - Ladeuil",,,45.054375,0.876361,,,0,"MOBIITI:StopPlace:77390",,2,,
"MOBIITI:Quay:112218","DouBo1","La Douze - Mas Bouchard",,,45.048759,0.868881,,,0,"MOBIITI:StopPlace:77393",,2,,
"MOBIITI:Quay:112217","DouPi1","La Douze - Les Picadis",,,45.049530,0.875633,,,0,"MOBIITI:StopPlace:77392",,2,,
"MOBIITI:Quay:111596","CEC02","Chancelade Ecoles",,"abribus MDO",45.204254,0.666426,,,0,"MOBIITI:StopPlace:77026",,1,,
"MOBIITI:Quay:112201","LEPGA01","LEP Gour de l'Arche",,,45.199741,0.675486,,,0,"MOBIITI:StopPlace:77379",,2,,
"MOBIITI:Quay:111595","ZAE01","ZAE Marsac",,"poteau",45.193268,0.660671,,,0,"MOBIITI:StopPlace:77025",,2,,
"MOBIITI:Quay:112200","LEPGA02","LEP Gour de l'Arche",,,45.200073,0.675340,,,0,"MOBIITI:StopPlace:77379",,2,,
"MOBIITI:Quay:111598","CIO01","Cimetière de l'Ouest",,"abribus DECAUX",45.190525,0.708176,,,0,"MOBIITI:StopPlace:77027",,2,,
"MOBIITI:Quay:112203","JaydB02","Jay de Beaufort",,,45.185143,0.711675,,,0,"MOBIITI:StopPlace:77380",,2,,
"MOBIITI:Quay:111597","CEC01","Chancelade Ecoles",,"abribus MDO",45.204346,0.667150,,,0,"MOBIITI:StopPlace:77026",,1,,
"MOBIITI:Quay:112202","JaydB01","Jay de Beaufort",,,45.182281,0.712440,,,0,"MOBIITI:StopPlace:77380",,2,,
"MOBIITI:Quay:111592","FLE01","Les Fleurs",,"poteau",45.202457,0.663845,,,0,"MOBIITI:StopPlace:77024",,1,,
"MOBIITI:Quay:111591","AVJ02","Av. Jean Jaurès",,"poteau",45.199100,0.662039,,,0,"MOBIITI:StopPlace:77023",,2,,
"MOBIITI:Quay:111594","ZAE02","ZAE Marsac",,"poteau",45.192574,0.661588,,,0,"MOBIITI:StopPlace:77025",,1,,
"MOBIITI:Quay:111593","FLE02","Les Fleurs",,"poteau",45.202576,0.664035,,,0,"MOBIITI:StopPlace:77024",,2,,
"MOBIITI:Quay:112209","RocBe01","La Roche Beaulieu",,,45.194050,0.620060,,,0,"MOBIITI:StopPlace:77385",,2,,
"MOBIITI:Quay:112208","PlBug01","Place Bugeaud",,,45.184010,0.718959,,,0,"MOBIITI:StopPlace:77384",,2,,
"MOBIITI:Quay:112205","Grave01","Gravelle",,,45.172829,0.591369,,,0,"MOBIITI:StopPlace:77382",,2,,
"MOBIITI:Quay:111599","CIO02","Cimetière de l'Ouest",,"poteau",45.190273,0.708405,,,0,"MOBIITI:StopPlace:77027",,2,,
"MOBIITI:Quay:112204","Plto01","PlaceTourny",,,45.186760,0.723684,,,0,"MOBIITI:StopPlace:77381",,2,,
"MOBIITI:Quay:112207","PlFra02","Place Francheville",,,45.181980,0.718598,,,0,"MOBIITI:StopPlace:77383",,2,,
"MOBIITI:Quay:112206","PlFra01","Place Francheville",,,45.182732,0.717331,,,0,"MOBIITI:StopPlace:77383",,2,,
"MOBIITI:Quay:111590","AVJ01","Av. Jean Jaurès",,"abribus MDO",45.199013,0.662103,,,0,"MOBIITI:StopPlace:77023",,1,,
"MOBIITI:Quay:111585","PEX02","Parc des Expositions",,"poteau",45.200764,0.670494,,,0,"MOBIITI:StopPlace:77020",,1,,
"MOBIITI:Quay:111584","PEX01","Parc des Expositions",,"poteau",45.200756,0.670379,,,0,"MOBIITI:StopPlace:77020",,1,,
"MOBIITI:Quay:111587","POS01","Gour de l'Arche Poste",,"abribus SES",45.196751,0.677537,"",,0,"MOBIITI:StopPlace:77021",,1,,
"MOBIITI:Quay:111586","POS02","Gour de l'Arche Poste",,"poteau",45.196724,0.677372,"",,0,"MOBIITI:StopPlace:77021",,2,,
"MOBIITI:Quay:111581","PBE01","Pont de la Beauronne",,"abribus DECAUX",45.199486,0.676037,,,0,"MOBIITI:StopPlace:77018",,2,,
"MOBIITI:Quay:111580","PBE02","Pont de la Beauronne",,"abribus DECAUX",45.199577,0.675884,,,0,"MOBIITI:StopPlace:77018",,2,,
"MOBIITI:Quay:111583","REY02","Les Reynats",,"poteau",45.203087,0.668002,,,0,"MOBIITI:StopPlace:77019",,2,,
"MOBIITI:Quay:111582","REY01","Les Reynats",,"poteau",45.202637,0.668180,,,0,"MOBIITI:StopPlace:77019",,2,,
"MOBIITI:Quay:111589","RPJ02","Rd-Pt Jean Jaurès",,"poteau",45.197399,0.661137,,,0,"MOBIITI:StopPlace:77022",,2,,
"MOBIITI:Quay:111588","RPJ01","Rd-Pt Jean Jaurès",,"poteau",45.197384,0.661264,,,0,"MOBIITI:StopPlace:77022",,2,,
"MOBIITI:Quay:111578","Tai02","Taillefer",,"abribus DECAUX",45.183651,0.718370,,,0,"MOBIITI:StopPlace:77017",,1,,
"MOBIITI:Quay:111579","Tai01","Taillefer",,"abribus DECAUX",45.183575,0.718487,,,0,"MOBIITI:StopPlace:77017",,1,,
"MOBIITI:Quay:111840","RPa02","Rte de Payenché",,"poteau",45.183838,0.637490,,,0,"MOBIITI:StopPlace:77161",,1,,
"MOBIITI:Quay:111604","FER01","Jules Ferry",,"abribus MDO",45.195503,0.702798,,,0,"MOBIITI:StopPlace:77030",,1,,
"MOBIITI:Quay:111846","RBo01","La Bouzonnie",,"poteau",45.172909,0.653445,,,0,"MOBIITI:StopPlace:77166",,2,,
"MOBIITI:Quay:111603","SNC02","Gare SNCF",,"poteau",45.186745,0.709026,,,0,"MOBIITI:StopPlace:77029",,1,,
"MOBIITI:Quay:111845","IMo01","Les Mondines",,"poteau",45.177956,0.660425,,,0,"MOBIITI:StopPlace:77165",,2,,
"MOBIITI:Quay:111606","SEV01","Sévène",,"abribus DECAUX",45.193413,0.705722,,,0,"MOBIITI:StopPlace:76738",,1,,
"MOBIITI:Quay:111848","Pay01","Payenché",,"poteau",45.174465,0.642753,,,0,"MOBIITI:StopPlace:77168",,2,,
"MOBIITI:Quay:111605","FER02","Jules Ferry",,"poteau",45.195145,0.703487,,,0,"MOBIITI:StopPlace:77030",,1,,
"MOBIITI:Quay:111847","Pel01","Le Péladier",,"poteau",45.170200,0.655886,,,0,"MOBIITI:StopPlace:77167",,2,,
"MOBIITI:Quay:111600","TOU02","Tourny Pompidou",,"poteau",45.187717,0.722045,,,0,"MOBIITI:StopPlace:77028",,2,,
"MOBIITI:Quay:111842","Mou01","Collège Jean Moulin",,"abribus MDO",45.192924,0.687976,,,0,"MOBIITI:StopPlace:77163",,1,,
"MOBIITI:Quay:111841","Sau01","Le Sault du Chevalier",,"poteau",45.187492,0.670163,,,0,"MOBIITI:StopPlace:77162",,2,,
"MOBIITI:Quay:111602","SNC01","Gare SNCF",,"abribus MDO",45.187271,0.708274,,,0,"MOBIITI:StopPlace:77029",,1,,
"MOBIITI:Quay:111844","ICo01","Les Courtes",,"poteau",45.175194,0.659306,,,0,"MOBIITI:StopPlace:77164",,2,,
"MOBIITI:Quay:111601","TOU03","Tourny Pompidou",,"poteau",45.187408,0.721654,,,0,"MOBIITI:StopPlace:77028",,2,,
"MOBIITI:Quay:111843","Mou02","Collège Jean Moulin",,"abribus MDO",45.192383,0.687535,,,0,"MOBIITI:StopPlace:77163",,1,,
"MOBIITI:Quay:111839","Mco02","Marsac commerces",,"poteau",45.184830,0.660387,"",,0,"MOBIITI:StopPlace:77160",,2,,
"MOBIITI:Quay:111838","Mco01","Marsac commerces",,"poteau",45.184776,0.660730,"",,0,"MOBIITI:StopPlace:77160",,2,,
"MOBIITI:Quay:111835","HMa01","Halte ferroviaire Marsac",,"abribus MDO",45.186722,0.663696,,,0,"MOBIITI:StopPlace:77158",,1,,
"MOBIITI:Quay:111834","Cco02","P+r Créavallée Sud",,"abribus MDO",45.136246,0.700141,"",,0,"MOBIITI:StopPlace:68330",,1,,
"MOBIITI:Quay:111837","Ber01","Les Bernardoux",,"abribus SES",45.183453,0.653967,,,0,"MOBIITI:StopPlace:77159",,2,,
"MOBIITI:Quay:111836","Ber02","Les Bernardoux",,"poteau",45.183571,0.654335,,,0,"MOBIITI:StopPlace:77159",,2,,
"MOBIITI:Quay:111831","CRe02","Créavallée",,"poteau",45.132320,0.702086,"",,0,"MOBIITI:StopPlace:77155",,2,,
"MOBIITI:Quay:111830","Suc01","Le Suchet",,"abribus SES",45.188671,0.793609,,,0,"MOBIITI:StopPlace:77154",,2,,
"MOBIITI:Quay:111833","Cco01","P+r Créavallée Sud",,"poteau",45.135658,0.700408,"",,0,"MOBIITI:StopPlace:68330",,2,,
"MOBIITI:Quay:111832","Cre01","P+r Créavallée Nord",,"abribus MDO",45.143192,0.698501,,,0,"MOBIITI:StopPlace:77156",,1,,
"MOBIITI:Quay:111828","Por02","Nouvelle du Port",,"poteau",45.182854,0.705220,,,0,"MOBIITI:StopPlace:77153",,2,,
"MOBIITI:Quay:111827","BFr02","Benoit Frachon",,"poteau",45.181496,0.771415,,,0,"MOBIITI:StopPlace:77152",,2,,
"MOBIITI:Quay:111829","Por01","Nouvelle du Port",,"poteau",45.182728,0.705338,,,0,"MOBIITI:StopPlace:77153",,2,,
"MOBIITI:Quay:111824","adm02","Cité Administrative",,"poteau",45.180412,0.709574,,,0,"MOBIITI:StopPlace:77151",,2,,
"MOBIITI:Quay:111823","Fro01","Fromarsac",,"poteau",45.184170,0.627400,,,0,"MOBIITI:StopPlace:77150",,2,,
"MOBIITI:Quay:111826","BFr01","Benoit Frachon",,"poteau",45.181564,0.771401,,,0,"MOBIITI:StopPlace:77152",,2,,
"MOBIITI:Quay:111825","adm01","Cité Administrative",,"abribus DECAUX",45.180531,0.709473,,,0,"MOBIITI:StopPlace:77151",,2,,
"MOBIITI:Quay:111820","Mrl02","Marival",,"poteau",45.185940,0.664808,,,0,"MOBIITI:StopPlace:77148",,1,,
"MOBIITI:Quay:111822","Mer01","Mériller",,"abribus MDO",45.192947,0.684543,,,0,"MOBIITI:StopPlace:77149",,1,,
"MOBIITI:Quay:111821","Mrl01","Marival",,"poteau",45.185661,0.664164,,,0,"MOBIITI:StopPlace:77148",,1,,
"MOBIITI:Quay:111817","ECi02","Eglise de la Cité",,"poteau",45.181870,0.713973,,,0,"MOBIITI:StopPlace:77146",,2,,
"MOBIITI:Quay:111816","Iza01","Les Izards",,"poteau",45.189430,0.696769,,,0,"MOBIITI:StopPlace:77145",,1,,
"MOBIITI:Quay:111819","Fra01","Francheville-cinéma",,"abribus DECAUX",45.181934,0.718575,,,0,"MOBIITI:StopPlace:77147",,2,,
"MOBIITI:Quay:111818","ECi01","Eglise de la Cité",,"poteau",45.181728,0.713757,,,0,"MOBIITI:StopPlace:77146",,2,,
"MOBIITI:Quay:111813","Ron01","Francis Rongieras",,"poteau",45.193096,0.698095,,,0,"MOBIITI:StopPlace:77144",,2,,
"MOBIITI:Quay:111812","PRi02","Privilège",,"poteau",45.199650,0.694620,,,0,"MOBIITI:StopPlace:77143",,2,,
"MOBIITI:Quay:111815","Iza02","Les Izards",,"abribus MDO",45.189484,0.696899,,,0,"MOBIITI:StopPlace:77145",,1,,
"MOBIITI:Quay:111814","Ron02","Francis Rongieras",,"poteau",45.192356,0.698476,,,0,"MOBIITI:StopPlace:77144",,2,,
"MOBIITI:Quay:111811","PRi01","Privilège",,"poteau",45.199467,0.694652,,,0,"MOBIITI:StopPlace:77143",,2,,
"MOBIITI:Quay:111810","RtA01","Route d'Angouleme",,"poteau",45.199814,0.675659,"",,0,"MOBIITI:StopPlace:59396",,2,,
"MOBIITI:Quay:111809","RtA02","Route d'Angouleme",,"poteau",45.199970,0.675511,"",,0,"MOBIITI:StopPlace:59396",,2,,
"MOBIITI:Quay:111806","TRo02","P+r Trélissac les Romains",,"abribus DECAUX",45.196491,0.736793,,,0,"MOBIITI:StopPlace:77140",,2,,
"MOBIITI:Quay:111805","PEM03","PEM",,"abribus METALCO",45.186657,0.706843,"",,0,"MOBIITI:StopPlace:77139",,1,,
"MOBIITI:Quay:111808","aqu01","P+r Aquacap",,"abribus MDO",45.204319,0.743989,,,0,"MOBIITI:StopPlace:77141",,1,,
"MOBIITI:Quay:111807","TRo01","P+r Trélissac les Romains",,"abribus MDO",45.196285,0.736565,,,0,"MOBIITI:StopPlace:77140",,1,,
"MOBIITI:Quay:111640","Bor01","La Borie",,"abribus SES",45.189411,0.750270,"",,0,"MOBIITI:StopPlace:59426",,2,,
"MOBIITI:Quay:111882","Jar01","Jarijoux",,"poteau",45.206245,0.746303,,,0,"MOBIITI:StopPlace:77192",,2,,
"MOBIITI:Quay:111881","GrB01","Les Grands Bruts",,"poteau",45.203575,0.767010,,,0,"MOBIITI:StopPlace:77191",,2,,
"MOBIITI:Quay:111642","EMa02","Les Maurilloux Ecoles",,"abribus SES",45.189896,0.746494,,,0,"MOBIITI:StopPlace:77051",,2,,
"MOBIITI:Quay:111884","pou02","Bas Pouyaud",,"poteau",45.208836,0.747879,,,0,"MOBIITI:StopPlace:77193",,2,,
"MOBIITI:Quay:111641","Bor02","La Borie",,"abribus SES",45.189491,0.750282,"",,0,"MOBIITI:StopPlace:59426",,2,,
"MOBIITI:Quay:111883","Jar02","Jarijoux",,"poteau",45.206413,0.746278,,,0,"MOBIITI:StopPlace:77192",,2,,
"MOBIITI:Quay:111880","GrB02","Les Grands Bruts",,"poteau",45.203510,0.766968,,,0,"MOBIITI:StopPlace:77191",,2,,
"MOBIITI:Quay:111889","RtP02","Route du Pouyaud",,,45.212727,0.759060,,,0,"MOBIITI:StopPlace:77195",,2,,
"MOBIITI:Quay:111644","TGA01","Trélissac Les Garennes",,"abribus double SES",45.195683,0.783070,,,0,"MOBIITI:StopPlace:2501",,1,,
"MOBIITI:Quay:111886","IGB02","Imp. des Grands Bruts",,"poteau",45.208054,0.764240,,,0,"MOBIITI:StopPlace:77194",,2,,
"MOBIITI:Quay:111643","EMa01","Les Maurilloux Ecoles",,"poteau",45.189869,0.745794,,,0,"MOBIITI:StopPlace:77051",,2,,
"MOBIITI:Quay:111885","pou01","Bas Pouyaud",,"poteau",45.209789,0.748655,,,0,"MOBIITI:StopPlace:77193",,2,,
"MOBIITI:Quay:111646","Tbg01","Trélissac Bourg",,"abribus MDO",45.194981,0.779879,,,0,"MOBIITI:StopPlace:2565",,1,,
"MOBIITI:Quay:111888","RtP01","Route du Pouyaud",,,45.212738,0.759130,,,0,"MOBIITI:StopPlace:77195",,2,,
"MOBIITI:Quay:111645","BUG01","Sainte Cécile",,"abribus DECAUX",45.183990,0.718940,,,0,"MOBIITI:StopPlace:77053",,1,,
"MOBIITI:Quay:111887","IGB01","Imp. des Grands Bruts",,"poteau",45.208076,0.764296,,,0,"MOBIITI:StopPlace:77194",,2,,
"MOBIITI:Quay:111871","bor01","La borie",,"poteau",45.223770,0.742290,,,0,"MOBIITI:StopPlace:77186",,2,,
"MOBIITI:Quay:111870","Pou01","Pouyaud",,"poteau",45.213638,0.751312,,,0,"MOBIITI:StopPlace:77185",,2,,
"MOBIITI:Quay:111631","Ars02","L'Arsault",,"poteau",45.190346,0.735179,,,0,"MOBIITI:StopPlace:77045",,2,,
"MOBIITI:Quay:111873","Sap01","Sapin d'Espagne",,"poteau",45.217869,0.744150,,,0,"MOBIITI:StopPlace:77187",,2,,
"MOBIITI:Quay:111630","Ars01","L'Arsault",,"poteau",45.190311,0.735357,,,0,"MOBIITI:StopPlace:77045",,2,,
"MOBIITI:Quay:111872","bor02","La borie",,"poteau",45.223652,0.742410,,,0,"MOBIITI:StopPlace:77186",,2,,
"MOBIITI:Quay:111637","Feu01","La Feuilleraie",,"abribus MDO",45.189651,0.763026,,,0,"MOBIITI:StopPlace:77048",,1,,
"MOBIITI:Quay:111879","Mai02","Les Maisons",,"poteau",45.210838,0.762446,,,0,"MOBIITI:StopPlace:77190",,2,,
"MOBIITI:Quay:111636","Feu02","La Feuilleraie",,"abribus MDO",45.189922,0.765169,,,0,"MOBIITI:StopPlace:77048",,2,,
"MOBIITI:Quay:111878","Mai01","Les Maisons",,"poteau",45.211189,0.762136,,,0,"MOBIITI:StopPlace:77190",,2,,
"MOBIITI:Quay:111639","Mds01","Les Mounards",,"poteau",45.188755,0.755952,,,0,"MOBIITI:StopPlace:77049",,1,,
"MOBIITI:Quay:111638","Mds02","Les Mounards",,"abribus MDO",45.188816,0.756423,,,0,"MOBIITI:StopPlace:77049",,1,,
"MOBIITI:Quay:111633","Med02","Médiathèque",,"abribus mairie Trélis.",45.190365,0.742324,,,0,"MOBIITI:StopPlace:77046",,2,,
"MOBIITI:Quay:111875","gra02","La grange",,"poteau",45.215721,0.748820,,,0,"MOBIITI:StopPlace:77188",,2,,
"MOBIITI:Quay:111632","Med01","Médiathèque",,"abribus SES",45.190220,0.742731,,,0,"MOBIITI:StopPlace:77046",,2,,
"MOBIITI:Quay:111874","Sap02","Sapin d'Espagne",,"poteau",45.217899,0.744650,,,0,"MOBIITI:StopPlace:77187",,2,,
"MOBIITI:Quay:111635","Jal01","Les Jalots",,"poteau",45.188496,0.760225,,,0,"MOBIITI:StopPlace:59420",,1,,
"MOBIITI:Quay:111877","Rej01","Réjaillac",,"poteau",45.226009,0.742342,,,0,"MOBIITI:StopPlace:77189",,2,,
"MOBIITI:Quay:111634","Jal02","Les Jalots",,"Abribus MDO",45.188545,0.759398,,,0,"MOBIITI:StopPlace:59420",,2,,
"MOBIITI:Quay:111876","gra01","La grange",,"poteau",45.215591,0.748990,,,0,"MOBIITI:StopPlace:77188",,2,,
"MOBIITI:Quay:111629","Can02","Cancale",,"poteau",45.188881,0.731111,,,0,"MOBIITI:StopPlace:77044",,2,,
"MOBIITI:Quay:111860","MAI01","Rue du 8 mai",,"poteau",45.185127,0.627811,,,0,"MOBIITI:StopPlace:77177",,2,,
"MOBIITI:Quay:111620","CHo01","Centre Hospitalier",,"abribus DECAUX",45.193375,0.728646,,,0,"MOBIITI:StopPlace:77039",,1,,
"MOBIITI:Quay:111862","Eco01","Les Ecoles",,"poteau",45.187691,0.634744,,,0,"MOBIITI:StopPlace:77178",,2,,
"MOBIITI:Quay:111861","Eco02","Les Ecoles",,"poteau",45.187626,0.634771,,,0,"MOBIITI:StopPlace:77178",,2,,
"MOBIITI:Quay:111626","MGr01","Michel Grandou",,"poteau",45.190578,0.739552,,,0,"MOBIITI:StopPlace:77043",,2,,
"MOBIITI:Quay:111868","PLC01","Clément Laval",,"poteau",45.185764,0.633956,,,0,"MOBIITI:StopPlace:77184",,2,,
"MOBIITI:Quay:111625","PBa02","Pont des Barris",,"abribus DECAUX",45.184792,0.725356,,,0,"MOBIITI:StopPlace:77042",,1,,
"MOBIITI:Quay:111867","Pav02","Les Pavillons",,"poteau",45.188843,0.631947,,,0,"MOBIITI:StopPlace:77183",,2,,
"MOBIITI:Quay:111628","Can01","Cancale",,"poteau",45.188671,0.731085,,,0,"MOBIITI:StopPlace:77044",,2,,
"MOBIITI:Quay:111627","MGr02","Michel Grandou",,"abribus SES",45.190716,0.739349,,,0,"MOBIITI:StopPlace:77043",,2,,
"MOBIITI:Quay:111869","Pou02","Pouyaud",,"poteau",45.214203,0.751401,,,0,"MOBIITI:StopPlace:77185",,2,,
"MOBIITI:Quay:111622","MEd01","Médiathèque",,"poteau",45.188736,0.723063,"",,0,"MOBIITI:StopPlace:68201",,1,,
"MOBIITI:Quay:111864","chA01","Les Champs",,"poteau",45.189651,0.630027,,,0,"MOBIITI:StopPlace:77180",,2,,
"MOBIITI:Quay:111621","PBL01","Pont de la Beauronne LEP",,"poteau",45.199268,0.676742,,,0,"MOBIITI:StopPlace:77040",,2,,
"MOBIITI:Quay:111863","MEr01","P+r Meriller",,"poteau",45.192833,0.683673,,,0,"MOBIITI:StopPlace:77179",,1,,
"MOBIITI:Quay:111624","PBa01","Pont des Barris",,"abribus DECAUX",45.184437,0.725135,,,0,"MOBIITI:StopPlace:77042",,1,,
"MOBIITI:Quay:111866","ICh01","Le Chambon",,"poteau",45.192345,0.625705,,,0,"MOBIITI:StopPlace:77182",,2,,
"MOBIITI:Quay:111623","MEd02","Médiathèque",,"poteau",45.188744,0.722987,"",,0,"MOBIITI:StopPlace:68201",,2,,
"MOBIITI:Quay:111865","Roc01","La Roche",,"poteau",45.190491,0.628197,,,0,"MOBIITI:StopPlace:77181",,2,,
"MOBIITI:Quay:111619","BUG02","Maurois",,"2 abribus DECAUX",45.184391,0.718620,,,0,"MOBIITI:StopPlace:77038",,1,,
"MOBIITI:Quay:111618","PEC01","Les Pêcheurs",,"poteau",45.199383,0.684744,,,0,"MOBIITI:StopPlace:77037",,1,,
"MOBIITI:Quay:111851","for01","La Forêt",,"poteau",45.175644,0.644673,,,0,"MOBIITI:StopPlace:77171",,2,,
"MOBIITI:Quay:111850","1ma02","1er mai",,"poteau",45.175510,0.645843,,,0,"MOBIITI:StopPlace:77170",,2,,
"MOBIITI:Quay:111615","OMN01","Salle Omnisports",,"abribus MDO",45.199165,0.698310,,,0,"MOBIITI:StopPlace:77035",,1,,
"MOBIITI:Quay:111857","Sej01","Clair Séjour",,"poteau",45.187088,0.630587,,,0,"MOBIITI:StopPlace:77176",,2,,
"MOBIITI:Quay:111614","OMN02","Salle Omnisports",,"abribus DECAUX",45.199764,0.697942,,,0,"MOBIITI:StopPlace:77035",,1,,
"MOBIITI:Quay:111856","MCa02","La Cave",,"poteau",45.183605,0.629074,,,0,"MOBIITI:StopPlace:77175",,1,,
"MOBIITI:Quay:111617","SPO01","Les Sports",,"abribus SES",45.197292,0.680436,,,0,"MOBIITI:StopPlace:77036",,2,,
"MOBIITI:Quay:111859","MAI02","Rue du 8 mai",,"poteau",45.185341,0.628137,,,0,"MOBIITI:StopPlace:77177",,2,,
"MOBIITI:Quay:111616","SPO02","Les Sports",,"poteau",45.197311,0.680207,,,0,"MOBIITI:StopPlace:77036",,2,,
"MOBIITI:Quay:111858","Sej02","Clair Séjour",,"poteau",45.187035,0.630579,,,0,"MOBIITI:StopPlace:77176",,2,,
"MOBIITI:Quay:111611","VST01","Voie des Stades",,"poteau",45.201359,0.693657,,,0,"MOBIITI:StopPlace:77033",,1,,
"MOBIITI:Quay:111853","FON01","Fonturlure",,"poteau",45.179848,0.646173,,,0,"MOBIITI:StopPlace:77173",,2,,
"MOBIITI:Quay:111610","VST02","Voie des Stades",,"poteau",45.201565,0.693047,,,0,"MOBIITI:StopPlace:77033",,2,,
"MOBIITI:Quay:111852","RBr01","Rte des Brandes",,"poteau",45.180511,0.641902,,,0,"MOBIITI:StopPlace:77172",,2,,
"MOBIITI:Quay:111613","BPU02","Beaupuy",,"poteau",45.200630,0.684110,,,0,"MOBIITI:StopPlace:77034",,2,,
"MOBIITI:Quay:111855","MCa01","La Cave",,"poteau",45.183491,0.628832,,,0,"MOBIITI:StopPlace:77175",,1,,
"MOBIITI:Quay:111854","CBr01","Chem. des Bruyères",,"poteau",45.177479,0.649630,,,0,"MOBIITI:StopPlace:77174",,2,,
"MOBIITI:Quay:111612","BPU01","Beaupuy",,"poteau",45.200352,0.683563,,,0,"MOBIITI:StopPlace:77034",,2,,
"MOBIITI:Quay:111608","BTO02","Barrière du Toulon",,"poteau",45.197762,0.699874,,,0,"MOBIITI:StopPlace:77032",,1,,
"MOBIITI:Quay:111607","SEV02","Sévène",,"poteau",45.193565,0.705722,,,0,"MOBIITI:StopPlace:76738",,1,,
"MOBIITI:Quay:111849","IBr02","Imp. des Brandes",,"poteau",45.176060,0.647394,,,0,"MOBIITI:StopPlace:77169",,2,,
"MOBIITI:Quay:111609","BTO01","Barrière du Toulon",,"abribus DECAUX",45.197247,0.700332,,,0,"MOBIITI:StopPlace:77032",,1,,
"MOBIITI:Quay:112099","VHu02","Victor Hugo",,"poteau",45.188717,0.717647,,,0,"MOBIITI:StopPlace:77308",,2,,
"MOBIITI:Quay:112094","CDa01","Combe des Dames",,"poteau",45.191200,0.721138,,,0,"MOBIITI:StopPlace:77305",,2,,
"MOBIITI:Quay:112093","CDa02","Combe des Dames",,"poteau",45.191490,0.721632,,,0,"MOBIITI:StopPlace:77305",,2,,
"MOBIITI:Quay:112096","Clu02","Le Cluzeau",,"poteau",45.196381,0.706011,,,0,"MOBIITI:StopPlace:77306",,2,,
"MOBIITI:Quay:112095","Clu01","Le Cluzeau",,"poteau",45.196278,0.705809,,,0,"MOBIITI:StopPlace:77306",,2,,
"MOBIITI:Quay:112090","Rud02","La Rudeille",,"poteau",45.198425,0.726477,,,0,"MOBIITI:StopPlace:77303",,2,,
"MOBIITI:Quay:112092","Erm01","L'Ermitage",,"abribus DECAUX",45.195114,0.723200,,,0,"MOBIITI:StopPlace:77304",,2,,
"MOBIITI:Quay:112091","Erm02","L'Ermitage",,"abribus DECAUX",45.195099,0.723254,,,0,"MOBIITI:StopPlace:77304",,2,,
"MOBIITI:Quay:112087","Jau01","Les Jaures",,"Abribus MDO",45.206081,0.715499,,,0,"MOBIITI:StopPlace:77301",,1,,
"MOBIITI:Quay:112086","MRo01","Maison Rouge",,"poteau",45.207432,0.714456,,,0,"MOBIITI:StopPlace:77300",,2,,
"MOBIITI:Quay:112089","Rud01","La Rudeille",,"abribus SES",45.198421,0.726368,,,0,"MOBIITI:StopPlace:77303",,2,,
"MOBIITI:Quay:112088","Puy01","Puyrousseau",,"poteau",45.201756,0.710452,,,0,"MOBIITI:StopPlace:77302",,2,,
"MOBIITI:Quay:112083","Pri01","Gilbert Privat",,"poteau",45.201523,0.714498,,,0,"MOBIITI:StopPlace:77298",,2,,
"MOBIITI:Quay:112082","Pri02","Gilbert Privat",,"poteau",45.201542,0.714412,,,0,"MOBIITI:StopPlace:77298",,2,,
"MOBIITI:Quay:112085","Ebe01","Marguerite Eberentz",,"poteau",45.200859,0.713036,,,0,"MOBIITI:StopPlace:77299",,2,,
"MOBIITI:Quay:112084","Ebe02","Marguerite Eberentz",,"poteau",45.200909,0.712778,,,0,"MOBIITI:StopPlace:77299",,2,,
"MOBIITI:Quay:112081","Meyni02","Les Meynichoux",,,45.120079,0.658924,"",,0,"MOBIITI:StopPlace:77297",,2,,
"MOBIITI:Quay:112080","Meyni01","Les Meynichoux",,"poteau",45.120068,0.658920,"",,0,"MOBIITI:StopPlace:77297",,2,,
"MOBIITI:Quay:112079","RazSP01","Razac Salle Polyvalente",,"poteau",45.161007,0.605820,,,0,"MOBIITI:StopPlace:77296",,2,,
"MOBIITI:Quay:112076","RelTV02","Relais TV",,"poteau",45.120811,0.639847,,,0,"MOBIITI:StopPlace:77294",,2,,
"MOBIITI:Quay:112075","RzB01","Razac Bourg",,"poteau",45.164108,0.601993,,,0,"MOBIITI:StopPlace:77293",,2,,
"MOBIITI:Quay:112078","CoB01","Coursac Bourg",,"poteau",45.128624,0.639319,,,0,"MOBIITI:StopPlace:77295",,2,,
"MOBIITI:Quay:112077","CoB02","Coursac Bourg",,"poteau",45.128529,0.639271,,,0,"MOBIITI:StopPlace:77295",,2,,
"MOBIITI:Quay:112072","FonMe01","Font de Meaux",,"poteau",45.121529,0.644027,,,0,"MOBIITI:StopPlace:77291",,2,,
"MOBIITI:Quay:112071","Priv01","Privats",,"poteau",45.121376,0.655244,,,0,"MOBIITI:StopPlace:77290",,2,,
"MOBIITI:Quay:112074","RzB02","Razac Bourg",,"poteau",45.164066,0.602134,,,0,"MOBIITI:StopPlace:77293",,2,,
"MOBIITI:Quay:112073","RzacG01","Halte ferroviaire Razac",,"abribus MDO",45.165852,0.599665,"",,0,"MOBIITI:StopPlace:77292",,1,,
"MOBIITI:Quay:112070","Brd02","Les Brandeaux",,"poteau",45.137638,0.637830,,,0,"MOBIITI:StopPlace:77289",,2,,
"MOBIITI:Quay:112069","Brd01","Les Brandeaux",,"poteau",45.138229,0.637913,,,0,"MOBIITI:StopPlace:77289",,2,,
"MOBIITI:Quay:112068","bar02","Barbette",,"poteau",45.178822,0.685508,,,0,"MOBIITI:StopPlace:77288",,2,,
"MOBIITI:Quay:112065","Val01","Jules Vallès",,"poteau",45.181602,0.682355,,,0,"MOBIITI:StopPlace:77287",,2,,
"MOBIITI:Quay:112064","AUG01","St-Augutre",,"poteau",45.183220,0.680283,"",,0,"MOBIITI:StopPlace:77286",,2,,
"MOBIITI:Quay:112067","bar01","Barbette",,"poteau",45.178749,0.685635,,,0,"MOBIITI:StopPlace:77288",,2,,
"MOBIITI:Quay:112066","Val02","Jules Vallès",,"poteau",45.181591,0.682292,,,0,"MOBIITI:StopPlace:77287",,2,,
"MOBIITI:Quay:112061","FMa02","Les Frères Marty",,"poteau",45.184994,0.696518,,,0,"MOBIITI:StopPlace:77284",,2,,
"MOBIITI:Quay:112060","FMa01","Les Frères Marty",,"poteau",45.185074,0.696591,,,0,"MOBIITI:StopPlace:77284",,2,,
"MOBIITI:Quay:112063","Dou01","Paul Doumer",,"poteau",45.186630,0.694751,,,0,"MOBIITI:StopPlace:77285",,2,,
"MOBIITI:Quay:112062","Dou02","Paul Doumer",,"poteau",45.186386,0.694624,,,0,"MOBIITI:StopPlace:77285",,2,,
"MOBIITI:Quay:111802","PEM04","PEM",,"abribus METALCO",45.186581,0.706841,"",,0,"MOBIITI:StopPlace:77139",,1,,
"MOBIITI:Quay:111801","TBa02","Trélissac Barberousse",,"poteau",45.197948,0.740035,,,0,"MOBIITI:StopPlace:77138",,2,,
"MOBIITI:Quay:111804","PEM01","PEM",,"abribus METALCO",45.186497,0.706945,"",,0,"MOBIITI:StopPlace:77139",,1,,
"MOBIITI:Quay:111803","PEM02","PEM",,"abribus METALCO",45.186558,0.707036,"",,0,"MOBIITI:StopPlace:77139",,1,,
"MOBIITI:Quay:111800","TBa01","Trélissac Barberousse",,"poteau",45.198444,0.740836,,,0,"MOBIITI:StopPlace:77138",,2,,
"MOBIITI:Quay:112135","CRX01","Les Crouchaux",,"poteau",45.148418,0.690555,,,0,"MOBIITI:StopPlace:77329",,2,,
"MOBIITI:Quay:112377","LacDu1","Lacropte - La Durantie",,,45.042408,0.815490,,,0,"MOBIITI:StopPlace:77532",,2,,
"MOBIITI:Quay:112376","LacSi1","Lacropte - La Sigonie",,,45.042091,0.809307,,,0,"MOBIITI:StopPlace:77531",,2,,
"MOBIITI:Quay:112134","TrM02","Trésorerie Municipale",,"poteau",45.180252,0.711794,,,0,"MOBIITI:StopPlace:77328",,2,,
"MOBIITI:Quay:112137","AvC01","Av. du Château",,"poteau",45.194759,0.666050,,,0,"MOBIITI:StopPlace:77330",,2,,
"MOBIITI:Quay:112379","VgtEc1","Vergt - Ecole primaire",,,45.026310,0.720626,,,0,"MOBIITI:StopPlace:77534",,2,,
"MOBIITI:Quay:112136","CRX02","Les Crouchaux",,"poteau",45.148357,0.690517,,,0,"MOBIITI:StopPlace:77329",,2,,
"MOBIITI:Quay:112378","LacPa1","Lacropte - Petit Paradis",,,45.047779,0.828124,,,0,"MOBIITI:StopPlace:77533",,2,,
"MOBIITI:Quay:112131","ChGoB01","La Chapelle Gonaguet - Bourg",,"poteau",45.231003,0.612555,"",,0,"MOBIITI:StopPlace:77326",,2,,
"MOBIITI:Quay:112373","VgtVi1","Vergt - Les Vignauds",,,45.033043,0.730805,,,0,"MOBIITI:StopPlace:77528",,2,,
"MOBIITI:Quay:112130","MeB01","Mensignac bourg",,"poteau",45.225258,0.560878,"",,0,"MOBIITI:StopPlace:77325",,2,,
"MOBIITI:Quay:112372","SalLa1","Salon - Lasselet",,,45.034973,0.788371,,,0,"MOBIITI:StopPlace:77527",,2,,
"MOBIITI:Quay:112375","LacJa1","Lacropte - Les Jauberties",,,45.039333,0.803974,,,0,"MOBIITI:StopPlace:77530",,2,,
"MOBIITI:Quay:112133","PoI01","Pôle Interconsulaire",,"poteau",45.145020,0.698088,,,0,"MOBIITI:StopPlace:77327",,2,,
"MOBIITI:Quay:112374","SalJo1","Salon - La Joubertie",,,45.034786,0.801433,,,0,"MOBIITI:StopPlace:77529",,2,,
"MOBIITI:Quay:112132","PoI02","Pôle Interconsulaire",,"poteau",45.144863,0.698038,,,0,"MOBIITI:StopPlace:77327",,2,,
"MOBIITI:Quay:112139","BdS1","Bd de Saltgourde",,"poteau",45.197918,0.669917,,,0,"MOBIITI:StopPlace:77332",,2,,
"MOBIITI:Quay:112138","RtR01","Rte de Ribérac",,"poteau",45.196796,0.653659,,,0,"MOBIITI:StopPlace:77331",,1,,
"MOBIITI:Quay:112371","SalLA1","Salon - Larmandie",,,45.026108,0.777350,,,0,"MOBIITI:StopPlace:77526",,2,,
"MOBIITI:Quay:112370","VdvGr1","Veyrines de Vergt - Le Grand But",,,44.994808,0.762707,,,0,"MOBIITI:StopPlace:77525",,2,,
"MOBIITI:Quay:112124","PCO01","Porte Corgne",,"poteau",45.131252,0.799941,,,0,"MOBIITI:StopPlace:77322",,2,,
"MOBIITI:Quay:113214","Mon01","La Monzie",,"poteau",45.206551,0.698069,"",,0,"MOBIITI:StopPlace:78134",,2,,
"MOBIITI:Quay:112366","SalBo1","Salon - Le Bourg",,,45.021431,0.773003,,,0,"MOBIITI:StopPlace:77521",,2,,
"MOBIITI:Quay:112123","PCO02","Porte Corgne",,"poteau",45.131123,0.799850,,,0,"MOBIITI:StopPlace:77322",,2,,
"MOBIITI:Quay:112365","CenPe1","Cendrieux - La Peyronnie",,,45.009026,0.803405,,,0,"MOBIITI:StopPlace:77520",,2,,
"MOBIITI:Quay:112126","CrB01","la Croix Blanche",,"Poteau",45.221439,0.553653,"",,0,"MOBIITI:StopPlace:77323",,2,,
"MOBIITI:Quay:112368","CenBo1","Cendrieux - Le Bourg",,,44.996067,0.822821,,,0,"MOBIITI:StopPlace:77523",,2,,
"MOBIITI:Quay:112125","CrB02","la Croix Blanche",,"Poteau",45.221397,0.553734,"",,0,"MOBIITI:StopPlace:77323",,2,,
"MOBIITI:Quay:113213","Mon02","La Monzie",,"poteau",45.206783,0.698425,"",,0,"MOBIITI:StopPlace:78134",,2,,
"MOBIITI:Quay:112367","CenMa1","Cendrieux - Maison neuve Le Ray",,,44.988579,0.833043,,,0,"MOBIITI:StopPlace:77522",,2,,
"MOBIITI:Quay:112120","Prx01","Le Poureix",,"poteau",45.126221,0.797135,,,0,"MOBIITI:StopPlace:77320",,2,,
"MOBIITI:Quay:112362","DouBr1","La Douze - Lot. le Breuilh",,,45.063553,0.864191,,,0,"MOBIITI:StopPlace:77517",,2,,
"MOBIITI:Quay:112361","DouPl1","La Douze - PLace de la Poste",,,45.061253,0.864637,,,0,"MOBIITI:StopPlace:77516",,2,,
"MOBIITI:Quay:112122","GdF01","ZA Grand Font",,,45.152435,0.789280,,,0,"MOBIITI:StopPlace:77321",,2,,
"MOBIITI:Quay:112364","DouPr1","La Douze - Les Pradelles",,,45.051613,0.860153,,,0,"MOBIITI:StopPlace:77519",,2,,
"MOBIITI:Quay:112121","Prx02","Le Poureix",,"poteau",45.126385,0.797197,,,0,"MOBIITI:StopPlace:77320",,2,,
"MOBIITI:Quay:112363","DouRe1","La Douze - Les Révélies",,,45.084023,0.857898,,,0,"MOBIITI:StopPlace:77518",,2,,
"MOBIITI:Quay:112128","AnB02","Annesse et Beaulieu bourg",,"poteau",45.173294,0.591653,"",,0,"MOBIITI:StopPlace:77324",,2,,
"MOBIITI:Quay:112127","AnB01","Annesse et Beaulieu bourg",,"poteau",45.173279,0.591564,"",,0,"MOBIITI:StopPlace:77324",,2,,
"MOBIITI:Quay:112369","VdvDe1","Veyrines de Vergt - La Dentelle",,,45.004749,0.756587,,,0,"MOBIITI:StopPlace:77524",,2,,
"MOBIITI:Quay:112129","MeB02","Mensignac bourg",,"poteau",45.225216,0.561020,"",,0,"MOBIITI:StopPlace:77325",,2,,
"MOBIITI:Quay:112360","LacSH1","Lacropte - Saute Haute",,,45.063408,0.830941,,,0,"MOBIITI:StopPlace:77515",,2,,
"MOBIITI:Quay:112113","BPa01","Blaise Pascal",,"poteau",45.192245,0.719033,,,0,"MOBIITI:StopPlace:77316",,2,,
"MOBIITI:Quay:112355","ChaBi1","Chalagnac - Les Bitarelles",,,45.100403,0.694366,,,0,"MOBIITI:StopPlace:77510",,2,,
"MOBIITI:Quay:112112","BEa02","Beaulieu",,"poteau",45.190815,0.717012,,,0,"MOBIITI:StopPlace:77315",,1,,
"MOBIITI:Quay:112354","EnvCo1","Eglise Neuve de Vergt - Les Combes",,,45.084789,0.725477,,,0,"MOBIITI:StopPlace:77509",,2,,
"MOBIITI:Quay:112115","Amp02","Ampère",,"poteau",45.192604,0.714571,,,0,"MOBIITI:StopPlace:77317",,2,,
"MOBIITI:Quay:112357","EnvBe1","Eglise Neuve de Vergt - La Berthomarie",,,45.092564,0.742950,,,0,"MOBIITI:StopPlace:77512",,2,,
"MOBIITI:Quay:112114","BPa02","Blaise Pascal",,"poteau",45.192417,0.719224,,,0,"MOBIITI:StopPlace:77316",,2,,
"MOBIITI:Quay:112356","EnvBo1","Eglise Neuve de Vergt - Le Bost",,,45.084347,0.735706,,,0,"MOBIITI:StopPlace:77511",,2,,
"MOBIITI:Quay:112351","BreMa1","Breuilh - Mairie",,,45.056915,0.753458,,,0,"MOBIITI:StopPlace:77506",,2,,
"MOBIITI:Quay:112350","BouBi1","Bourrou - Bigot",,,45.040035,0.608651,,,0,"MOBIITI:StopPlace:77505",,2,,
"MOBIITI:Quay:112111","BEa01","Beaulieu",,"poteau",45.190472,0.717355,,,0,"MOBIITI:StopPlace:77315",,1,,
"MOBIITI:Quay:112353","Envbo1","Eglise Neuve de Vergt - Le Bourg",,,45.081207,0.733666,"",,0,"MOBIITI:StopPlace:60155",,2,,
"MOBIITI:Quay:112110","Gre01","Pôle Universitaire Grenadière",,"abribus SES",45.194477,0.720215,,,0,"MOBIITI:StopPlace:77314",,2,,
"MOBIITI:Quay:112352","BreLa1","Breuilh - Les Landes",,,45.071564,0.738113,,,0,"MOBIITI:StopPlace:77507",,2,,
"MOBIITI:Quay:112117","BFa02","Basse Faye",,"poteau",45.119637,0.797514,,,0,"MOBIITI:StopPlace:77318",,2,,
"MOBIITI:Quay:112359","LacFo1","Lacropte - Fontroubade Entrepôt",,,45.061161,0.819819,,,0,"MOBIITI:StopPlace:77514",,2,,
"MOBIITI:Quay:112116","Amp01","Ampère",,"poteau",45.192585,0.714469,,,0,"MOBIITI:StopPlace:77317",,2,,
"MOBIITI:Quay:112358","ChaGr1","Chalagnac - Les Granges",,,45.094212,0.676121,,,0,"MOBIITI:StopPlace:77513",,2,,
"MOBIITI:Quay:112119","HNi01","Halte ferroviaire Niversac",,"abribus MDO",45.138115,0.808099,"",,0,"MOBIITI:StopPlace:77319",,1,,
"MOBIITI:Quay:112118","BFa01","Basse Faye",,"poteau",45.118683,0.798521,,,0,"MOBIITI:StopPlace:77318",,2,,
"MOBIITI:Quay:112102","Tra02","Ludovic Trarieux",,"poteau",45.191597,0.713363,,,0,"MOBIITI:StopPlace:77310",,2,,
"MOBIITI:Quay:112344","SlbBo1","Saint Laurent des Bâtons - Le Bourg",,,44.959305,0.735667,,,0,"MOBIITI:StopPlace:77499",,2,,
"MOBIITI:Quay:112101","Cam01","Campus",,"poteau",45.197113,0.718130,,,0,"MOBIITI:StopPlace:77309",,2,,
"MOBIITI:Quay:112343","SavMa1","Saint Amand de Vergt - Place de la Mairie",,,44.988373,0.697855,,,0,"MOBIITI:StopPlace:77498",,2,,
"MOBIITI:Quay:112104","Boi01","Boisset",,"poteau",45.198395,0.720540,,,0,"MOBIITI:StopPlace:77311",,2,,
"MOBIITI:Quay:112346","SmpLb1","Saint Mayme de Pereyrol - lac blanc",,,45.018745,0.636335,,,0,"MOBIITI:StopPlace:77501",,2,,
"MOBIITI:Quay:112103","Tra01","Ludovic Trarieux",,"abribus DECAUX",45.191444,0.713465,,,0,"MOBIITI:StopPlace:77310",,2,,
"MOBIITI:Quay:112345","SavCr1","Saint Amand de Vergt - La Crx de l'hirondelle",,,44.980495,0.702491,,,0,"MOBIITI:StopPlace:77500",,2,,
"MOBIITI:Quay:112340","Smvsf1","Saint Michel de Villadeix - Salle des Fêtes",,,44.986515,0.722368,,,0,"MOBIITI:StopPlace:77495",,2,,
"MOBIITI:Quay:112100","VHu01","Victor Hugo",,"poteau",45.188564,0.717673,,,0,"MOBIITI:StopPlace:77308",,2,,
"MOBIITI:Quay:112342","VdvCr1","Veyrines de Vergt - La Croix",,,44.990013,0.764078,,,0,"MOBIITI:StopPlace:77497",,2,,
"MOBIITI:Quay:112341","SmvPr1","Saint Michel de Villadeix - Pradignac",,,45.008564,0.739050,,,0,"MOBIITI:StopPlace:77496",,2,,
"MOBIITI:Quay:112109","Lon02","Longueville",,"poteau",45.209030,0.726435,,,0,"MOBIITI:StopPlace:77313",,2,,
"MOBIITI:Quay:112106","Bbe02","Barbe",,"poteau",45.202236,0.725320,,,0,"MOBIITI:StopPlace:77312",,2,,
"MOBIITI:Quay:112348","GruMa1","Grun-Bordas - Mairie",,,45.046562,0.652737,,,0,"MOBIITI:StopPlace:77503",,2,,
"MOBIITI:Quay:112105","Boi02","Boisset",,"poteau",45.198296,0.720625,,,0,"MOBIITI:StopPlace:77311",,2,,
"MOBIITI:Quay:112347","Smpbg1","Saint Mayme de Pereyrol - bourg",,,45.014507,0.647083,,,0,"MOBIITI:StopPlace:77502",,2,,
"MOBIITI:Quay:112108","Lon01","Longueville",,"poteau",45.208702,0.726394,,,0,"MOBIITI:StopPlace:77313",,2,,
"MOBIITI:Quay:112107","Bbe01","Barbe",,"poteau",45.202229,0.725230,,,0,"MOBIITI:StopPlace:77312",,2,,
"MOBIITI:Quay:112349","GruCi1","Grun - Cimetière",,,45.056084,0.635779,,,0,"MOBIITI:StopPlace:77504",,2,,
"MOBIITI:Quay:112179","Priva01","Rte des Privats1",,,45.122116,0.646935,,,0,"MOBIITI:StopPlace:77362",,2,,
"MOBIITI:Quay:112178","RtePr01","Rte des Privats2",,,45.122059,0.649280,,,0,"MOBIITI:StopPlace:77361",,2,,
"MOBIITI:Quay:112175","EcELe01","Ecole Eugene Leroy",,,45.192226,0.691313,,,0,"MOBIITI:StopPlace:77358",,2,,
"MOBIITI:Quay:112174","Pagot01","Pagot",,,45.179565,0.691830,,,0,"MOBIITI:StopPlace:77357",,2,,
"MOBIITI:Quay:112177","FontP01","Fontaine des Privats",,,45.120716,0.656884,,,0,"MOBIITI:StopPlace:77360",,2,,
"MOBIITI:Quay:112176","Bleri01","Rue Bleriot",,,45.186539,0.691980,,,0,"MOBIITI:StopPlace:77359",,2,,
"MOBIITI:Quay:112171","MAubM01","Milhac d'Auberoche - Ecole Maternelle",,,45.110809,0.916789,,,0,"MOBIITI:StopPlace:77354",,2,,
"MOBIITI:Quay:112170","EylEc01","Eyliac Ecole",,,45.161190,0.859129,,,0,"MOBIITI:StopPlace:77353",,2,,
"MOBIITI:Quay:112173","SLMEc01","Saint Laurent sur Manoire Ecole",,,45.148987,0.793104,,,0,"MOBIITI:StopPlace:77356",,2,,
"MOBIITI:Quay:112172","SMCEc01","Ste Marie de Chignac Ecole",,,45.130939,0.827347,,,0,"MOBIITI:StopPlace:77355",,2,,
"MOBIITI:Quay:112168","CornB01","Cornille Bourg",,,45.250824,0.784679,,,0,"MOBIITI:StopPlace:77351",,2,,
"MOBIITI:Quay:112167","TrEcM01","Trelissac Ecole Maurilloux",,,45.190762,0.747176,,,0,"MOBIITI:StopPlace:77350",,2,,
"MOBIITI:Quay:112169","SaaEc1","Saint Antoine d'Auberoche - ancienne Ecole",,,45.141712,0.943088,,,0,"MOBIITI:StopPlace:77352",,2,,
"MOBIITI:Quay:112164","Lyonn02","Le Lyonnet",,,45.251778,0.744561,,,0,"MOBIITI:StopPlace:77348",,2,,
"MOBIITI:Quay:112163","Lyonn01","Le Lyonnet",,,45.251385,0.744156,,,0,"MOBIITI:StopPlace:77348",,2,,
"MOBIITI:Quay:112166","Cluze02","Le Cluzeau",,,45.246853,0.733243,,,0,"MOBIITI:StopPlace:77349",,2,,
"MOBIITI:Quay:112165","Cluze01","Le Cluzeau",,,45.247040,0.732826,,,0,"MOBIITI:StopPlace:77349",,2,,
"MOBIITI:Quay:112160","Saleu01","Saleuil",,,45.253597,0.741139,,,0,"MOBIITI:StopPlace:77345",,2,,
"MOBIITI:Quay:112162","Bosqu01","Bosquely",,,45.269348,0.721429,,,0,"MOBIITI:StopPlace:77347",,2,,
"MOBIITI:Quay:112161","Sanet01","Sanet",,,45.258141,0.751730,,,0,"MOBIITI:StopPlace:77346",,2,,
"MOBIITI:Quay:112157","AgoEp01","Agonac Ecoles primaire et maternelle",,,45.294041,0.752519,,,0,"MOBIITI:StopPlace:77342",,2,,
"MOBIITI:Quay:112156","PtSa01","Petit Sanet",,,45.250744,0.760545,,,0,"MOBIITI:StopPlace:77341",,2,,
"MOBIITI:Quay:112159","Timbr01","Le Timbre",,,45.257298,0.733375,,,0,"MOBIITI:StopPlace:77344",,2,,
"MOBIITI:Quay:112158","Lanne01","Lannerie",,,45.262104,0.728424,,,0,"MOBIITI:StopPlace:77343",,2,,
"MOBIITI:Quay:112153","ESG02","Eglise St-Georges",,"abribus DECAUX",45.179783,0.728695,,,0,"MOBIITI:StopPlace:77339",,1,,
"MOBIITI:Quay:112152","ESG01","Eglise St-Georges",,"poteau",45.179665,0.728365,,,0,"MOBIITI:StopPlace:77339",,1,,
"MOBIITI:Quay:112155","Cle01","Jean Clédat",,"poteau",45.182590,0.731835,,,0,"MOBIITI:StopPlace:77340",,2,,
"MOBIITI:Quay:112154","Cle02","Jean Clédat",,"abribus DECAUX",45.182537,0.731937,,,0,"MOBIITI:StopPlace:77340",,2,,
"MOBIITI:Quay:112391","Pis01","Marsac Piscine",,"poteau",45.188000,0.660819,,,0,"MOBIITI:StopPlace:77544",,2,,
"MOBIITI:Quay:112390","cha02","Chantecor",,"poteau",45.201809,0.743531,,,0,"MOBIITI:StopPlace:77543",,1,,
"MOBIITI:Quay:112151","AMa02","Albert Martin",,"poteau",45.185802,0.735471,,,0,"MOBIITI:StopPlace:77338",,2,,
"MOBIITI:Quay:112392","Pis02","Marsac Piscine",,"poteau",45.187836,0.660870,,,0,"MOBIITI:StopPlace:77544",,2,,
"MOBIITI:Quay:112150","AMa01","Albert Martin",,"poteau",45.185974,0.735242,,,0,"MOBIITI:StopPlace:77338",,2,,
"MOBIITI:Quay:112146","CFr02","Charnay Frachet",,"poteau",45.188213,0.733742,,,0,"MOBIITI:StopPlace:77336",,2,,
"MOBIITI:Quay:112388","SlbEc1","Saint Laurent des Bâtons - Ecole",,,44.959042,0.737964,,,0,"MOBIITI:StopPlace:77542",,2,,
"MOBIITI:Quay:112145","pre01","Les Prés",,"abribus SES",45.187187,0.730157,,,0,"MOBIITI:StopPlace:77335",,2,,
"MOBIITI:Quay:112387","CenEc1","Cendrieux - Ecole",,,44.994991,0.818668,,,0,"MOBIITI:StopPlace:77541",,2,,
"MOBIITI:Quay:112148","Mdx02","Les Mondoux",,"abribus SES",45.185444,0.730094,,,0,"MOBIITI:StopPlace:77337",,2,,
"MOBIITI:Quay:112389","cha01","Chantecor",,"poteau",45.201927,0.743722,,,0,"MOBIITI:StopPlace:77543",,2,,
"MOBIITI:Quay:112147","CFr01","Charnay Frachet",,"poteau",45.188080,0.733666,,,0,"MOBIITI:StopPlace:77336",,2,,
"MOBIITI:Quay:112142","Gue01","Le Gué de Barnabé",,"poteau",45.186134,0.738395,,,0,"MOBIITI:StopPlace:77334",,2,,
"MOBIITI:Quay:112384","PlHoc1","Place Hoche",,,45.181183,0.722196,,,0,"MOBIITI:StopPlace:77539",,2,,
"MOBIITI:Quay:112141","Prm02","Parmentier",,"poteau",45.185452,0.738573,,,0,"MOBIITI:StopPlace:77333",,2,,
"MOBIITI:Quay:112144","pre02","Les Prés",,"poteau",45.187378,0.730170,,,0,"MOBIITI:StopPlace:77335",,2,,
"MOBIITI:Quay:112386","SalEc1","Saint Alvère - Ecole",,,44.947273,0.811022,,,0,"MOBIITI:StopPlace:77540",,2,,
"MOBIITI:Quay:112143","Gue02","Le Gué de Barnabé",,"poteau",45.186226,0.738052,,,0,"MOBIITI:StopPlace:77334",,2,,
"MOBIITI:Quay:112385","PlHoc2","Place Hoche",,,45.181252,0.721886,,,0,"MOBIITI:StopPlace:77539",,2,,
"MOBIITI:Quay:112149","Mdx01","Les Mondoux",,"poteau",45.185478,0.730132,,,0,"MOBIITI:StopPlace:77337",,2,,
"MOBIITI:Quay:112380","SalMi1","Salon - Château Missier",,,45.052025,0.788121,,,0,"MOBIITI:StopPlace:77535",,2,,
"MOBIITI:Quay:112140","Prm01","Parmentier",,"poteau",45.185307,0.738561,,,0,"MOBIITI:StopPlace:77333",,2,,
"MOBIITI:Quay:112382","LacFô1","Lacropte - Les Forêts",,,45.078472,0.815525,,,0,"MOBIITI:StopPlace:77537",,2,,
"MOBIITI:Quay:112381","LacSf1","Lacropte - Parking Salle des Fêtes",,,45.034946,0.829619,,,0,"MOBIITI:StopPlace:77536",,2,,
"MOBIITI:Quay:111684","COM01","Centre de la Communication",,"abribus DECAUX",45.179920,0.724650,"",,0,"MOBIITI:StopPlace:2839",,1,,
"MOBIITI:Quay:111683","LAC03","Gabriel Lacueille",,"poteau",45.183968,0.729776,,,0,"MOBIITI:StopPlace:77073",,2,,
"MOBIITI:Quay:111686","bea02","Beausoleil",,"poteau",45.218220,0.730966,,,0,"MOBIITI:StopPlace:77075",,2,,
"MOBIITI:Quay:111685","COM02","Centre de la Communication",,"abribus DECAUX",45.180050,0.724570,"",,0,"MOBIITI:StopPlace:2839",,1,,
"MOBIITI:Quay:111680","FDH02","Faidherbe",,"abribus MDO",45.182568,0.726682,,,0,"MOBIITI:StopPlace:77072",,1,,
"MOBIITI:Quay:111682","LAC01","Gabriel Lacueille",,"poteau",45.183868,0.730272,,,0,"MOBIITI:StopPlace:77073",,1,,
"MOBIITI:Quay:111681","LAC02","Gabriel Lacueille",,"abribus DECAUX",45.183941,0.730221,,,0,"MOBIITI:StopPlace:77073",,1,,
"MOBIITI:Quay:112539","Tac01","Al. du Tacot",,,45.203320,0.792152,,,0,"MOBIITI:StopPlace:77641",,2,,
"MOBIITI:Quay:112538","Aut02","Av. de l'Automobile",,,45.199848,0.795457,,,0,"MOBIITI:StopPlace:77640",,2,,
"MOBIITI:Quay:111688","MaF01","Majoral Fournier",,"poteau",45.214779,0.727898,,,0,"MOBIITI:StopPlace:77076",,2,,
"MOBIITI:Quay:111687","bea01","Beausoleil",,"poteau",45.218140,0.730564,,,0,"MOBIITI:StopPlace:77075",,2,,
"MOBIITI:Quay:112537","Aut01","Av. de l'Automobile",,,45.199371,0.794370,,,0,"MOBIITI:StopPlace:77640",,2,,
"MOBIITI:Quay:111689","Mah02","Les Mazades Hautes",,"poteau",45.201263,0.728884,,,0,"MOBIITI:StopPlace:77077",,2,,
"MOBIITI:Quay:111673","Lpt02","Lesparat",,"poteau",45.182114,0.757681,"",,0,"MOBIITI:StopPlace:60048",,1,,
"MOBIITI:Quay:112762","Piles02","Les Piles",,"poteau",45.252365,0.811479,"",,0,"MOBIITI:StopPlace:77454",,2,,
"MOBIITI:Quay:111672","Lpt01","Lesparat",,"poteau",45.182037,0.757702,"",,0,"MOBIITI:StopPlace:60048",,1,,
"MOBIITI:Quay:112761","Mco03","Marsac commerces",,"poteau",45.184700,0.661533,"",,0,"MOBIITI:StopPlace:77160",,2,,
"MOBIITI:Quay:111675","TPD02","Talleyrand Périgord",,"abribus DECAUX",45.183933,0.732993,,,0,"MOBIITI:StopPlace:77070",,1,,
"MOBIITI:Quay:112764","Pst1","Parking stade",,,45.304203,0.864054,,,0,"MOBIITI:StopPlace:77767",,2,,
"MOBIITI:Quay:111674","TPD01","Talleyrand Périgord",,"abribus DECAUX",45.183872,0.732999,,,0,"MOBIITI:StopPlace:77070",,1,,
"MOBIITI:Quay:112763","Puys1","Puyssembert",,,45.049095,0.610455,,,0,"MOBIITI:StopPlace:77766",,2,,
"MOBIITI:Quay:111671","BLZ02","Boulazac Centre commercial",,"abribus SES",45.183968,0.774882,"",,0,"MOBIITI:StopPlace:59652",,1,,
"MOBIITI:Quay:112760","Vei01","Simone Veil",,,45.183449,0.794812,,,0,"MOBIITI:StopPlace:77765",,2,,
"MOBIITI:Quay:111670","BLZ01","Boulazac Centre commercial",,"poteau",45.183662,0.775137,"",,0,"MOBIITI:StopPlace:59652",,2,,
"MOBIITI:Quay:111677","PEP01","Pépinière",,"abribus DECAUX",45.183285,0.737107,"",,0,"MOBIITI:StopPlace:77071",,1,,
"MOBIITI:Quay:111676","PEP02","Pépinière",,"abribus DECAUX",45.183216,0.738147,"",,0,"MOBIITI:StopPlace:77071",,1,,
"MOBIITI:Quay:111679","FDH01","Faidherbe",,"abribus MDO",45.182484,0.726749,,,0,"MOBIITI:StopPlace:77072",,1,,
"MOBIITI:Quay:111662","SOM01","La Somme",,"poteau",45.182076,0.745785,,,0,"MOBIITI:StopPlace:77063",,1,,
"MOBIITI:Quay:111661","SOM02","La Somme",,"poteau",45.182030,0.745955,,,0,"MOBIITI:StopPlace:77063",,1,,
"MOBIITI:Quay:111664","BAR01","Bareyrou",,"poteau",45.185326,0.782167,,,0,"MOBIITI:StopPlace:77064",,2,,
"MOBIITI:Quay:111663","BAR02","Bareyrou",,"poteau",45.185375,0.782015,,,0,"MOBIITI:StopPlace:77064",,2,,
"MOBIITI:Quay:111660","CAR01","Maison Carrée",,"abribus MDO",45.180855,0.746468,,,0,"MOBIITI:StopPlace:77062",,1,,
"MOBIITI:Quay:111669","CRO01","Ambroise Croizat",,"poteau",45.183201,0.769314,,,0,"MOBIITI:StopPlace:77067",,1,,
"MOBIITI:Quay:111666","MPA01","Marcel Paul",,"abribus MDO",45.183811,0.778980,"",,0,"MOBIITI:StopPlace:68552",,2,,
"MOBIITI:Quay:111665","AGO01","Agora",,"poteau",45.182266,0.762256,,,0,"MOBIITI:StopPlace:77065",,2,,
"MOBIITI:Quay:111668","CRO02","Ambroise Croizat",,"abribus MDO",45.183247,0.769085,,,0,"MOBIITI:StopPlace:77067",,2,,
"MOBIITI:Quay:111667","MPA02","Marcel Paul",,"abribus MDO",45.183949,0.778900,"",,0,"MOBIITI:StopPlace:68552",,2,,
"MOBIITI:Quay:111651","ChA04","P+r Charriéras",,"Poteau",45.204090,0.802876,,,0,"MOBIITI:StopPlace:77057",,1,,
"MOBIITI:Quay:111893","Che02","Chercuzac",,"poteau",45.192570,0.641508,,,0,"MOBIITI:StopPlace:77197",,2,,
"MOBIITI:Quay:111892","Che01","Chercuzac",,"poteau",45.192348,0.642643,,,0,"MOBIITI:StopPlace:77197",,2,,
"MOBIITI:Quay:111653","HOC02","Hoche",,"abribus DECAUX",45.181141,0.722260,,,0,"MOBIITI:StopPlace:77058",,1,,
"MOBIITI:Quay:111895","LeB02","Lespinasse Basse",,"poteau",45.196003,0.646626,,,0,"MOBIITI:StopPlace:77198",,2,,
"MOBIITI:Quay:111652","HOC01","Hoche",,"poteau",45.181232,0.721932,,,0,"MOBIITI:StopPlace:77058",,1,,
"MOBIITI:Quay:111894","LeB01","Lespinasse Basse",,"poteau",45.195915,0.646796,,,0,"MOBIITI:StopPlace:77198",,2,,
"MOBIITI:Quay:111891","MCo02","Maison des Compagnons",,"poteau",45.190769,0.646974,,,0,"MOBIITI:StopPlace:77196",,1,,
"MOBIITI:Quay:111890","MCo01","Maison des Compagnons",,"poteau",45.190594,0.646895,,,0,"MOBIITI:StopPlace:77196",,2,,
"MOBIITI:Quay:111659","CAR02","Maison Carrée",,"abribus MDO",45.180908,0.746532,,,0,"MOBIITI:StopPlace:77062",,1,,
"MOBIITI:Quay:111658","CST02","Cimetière St-Georges",,"abribus DECAUX",45.182804,0.741156,,,0,"MOBIITI:StopPlace:77061",,1,,
"MOBIITI:Quay:111655","tou04","Les Tournesols",,"poteau",45.186897,0.788634,,,0,"MOBIITI:StopPlace:77060",,2,,
"MOBIITI:Quay:111897","Gar02","Les Garennes",,"poteau",45.196152,0.650135,,,0,"MOBIITI:StopPlace:77199",,2,,
"MOBIITI:Quay:111654","TOU01","Tourny",,"2 abribus MDO",45.187096,0.722511,"",,0,"MOBIITI:StopPlace:14602",,1,,
"MOBIITI:Quay:111896","Gar01","Les Garennes",,"poteau",45.196121,0.650267,,,0,"MOBIITI:StopPlace:77199",,2,,
"MOBIITI:Quay:111657","CST01","Cimetière St-Georges",,"abribus DECAUX",45.182812,0.740664,,,0,"MOBIITI:StopPlace:77061",,1,,
"MOBIITI:Quay:111899","LES02","Chancelade Lespinasse",,"poteau",45.195663,0.638571,,,0,"MOBIITI:StopPlace:77200",,2,,
"MOBIITI:Quay:111898","LES01","Chancelade Lespinasse",,"poteau",45.195820,0.638155,,,0,"MOBIITI:StopPlace:77200",,2,,
"MOBIITI:Quay:111656","tou03","Les Tournesols",,"poteau",45.186863,0.788877,,,0,"MOBIITI:StopPlace:77060",,2,,
"MOBIITI:Quay:112335","SlbRo1","Saint Laurent des Bâtons - la Rousique",,,44.970123,0.722867,,,0,"MOBIITI:StopPlace:77490",,2,,
"MOBIITI:Quay:112334","SorBu1","Sorges - Bujadelles",,,45.270107,0.873759,,,0,"MOBIITI:StopPlace:77489",,2,,
"MOBIITI:Quay:112337","FouBr","Fouleix - La Brande",,,44.982224,0.661608,"",,0,"MOBIITI:StopPlace:60147",,2,,
"MOBIITI:Quay:112336","Foubr1","Fouleix - le bourg",,,44.985020,0.680660,,,0,"MOBIITI:StopPlace:77491",,2,,
"MOBIITI:Quay:112339","SmvCa1","Saint Michel de Villadeix - Le Cannebal",,,44.989960,0.746439,,,0,"MOBIITI:StopPlace:77494",,2,,
"MOBIITI:Quay:112338","VgtCo1","Vergt - Collège",,,45.024284,0.711971,,,0,"MOBIITI:StopPlace:77493",,2,,
"MOBIITI:Quay:112322","SpsEg1","Saint Paul de Serre - Eglise",,,45.088448,0.633746,,,0,"MOBIITI:StopPlace:77477",,2,,
"MOBIITI:Quay:112321","CreLa1","Creyssensac - La Landière",,,45.071896,0.681537,,,0,"MOBIITI:StopPlace:77476",,2,,
"MOBIITI:Quay:112324","VgtFa1","Vergt-Fauchérias",,,45.067413,0.691297,,,0,"MOBIITI:StopPlace:77479",,2,,
"MOBIITI:Quay:112323","ChaCh1","Chalagnac - Les Chanteloubes",,,45.072357,0.683097,,,0,"MOBIITI:StopPlace:77478",,2,,
"MOBIITI:Quay:112320","CreFa1","Creyssensac - Fauchérias",,,45.066868,0.691302,,,0,"MOBIITI:StopPlace:77475",,2,,
"MOBIITI:Quay:112326","CreCi1","Creyssensac - Cimetière",,,45.076859,0.666565,,,0,"MOBIITI:StopPlace:77481",,2,,
"MOBIITI:Quay:112325","CreGr1","Creyssensac - Les Graves",,,45.084057,0.650246,,,0,"MOBIITI:StopPlace:77480",,2,,
"MOBIITI:Quay:112327","SorEc1","Sorges - Ecole Place COOP",,,45.308556,0.875013,,,0,"MOBIITI:StopPlace:77482",,2,,
"MOBIITI:Quay:112311","Doubr01","La Douze bourg",,,45.061245,0.863392,,,0,"MOBIITI:StopPlace:77466",,2,,
"MOBIITI:Quay:112310","DouVb1","La Douze - Versannes bourg",,,45.089935,0.856025,,,0,"MOBIITI:StopPlace:77465",,2,,
"MOBIITI:Quay:112313","Envsf01","Eglise neuve de vergt- salle des fêtes",,"Poteau",45.082710,0.733000,,,0,"MOBIITI:StopPlace:77468",,2,,
"MOBIITI:Quay:112312","EcYPe1","Ecole Yves Péron",,,45.183750,0.784131,,,0,"MOBIITI:StopPlace:77467",,2,,
"MOBIITI:Quay:112319","ChaCo1","Chalagnac - Courbe",,,45.094753,0.660742,,,0,"MOBIITI:StopPlace:77474",,2,,
"MOBIITI:Quay:112318","ChaBo1","Chalagnac - Le Boutet",,,45.095074,0.665765,,,0,"MOBIITI:StopPlace:77473",,2,,
"MOBIITI:Quay:112315","SpsEc1","Saint Paul de Serre Ecole",,,45.086708,0.633011,,,0,"MOBIITI:StopPlace:77470",,2,,
"MOBIITI:Quay:112314","ChaEc01","Chalagnac Ecole",,,45.092369,0.677559,,,0,"MOBIITI:StopPlace:77469",,2,,
"MOBIITI:Quay:112317","CreBg1","Creyssensac - Bourg",,,45.082363,0.661043,,,0,"MOBIITI:StopPlace:77472",,2,,
"MOBIITI:Quay:112316","SpsAm1","Saint Paul de Serre - atelier municipal",,,45.080723,0.635683,,,0,"MOBIITI:StopPlace:77471",,2,,
"MOBIITI:Quay:111695","PRo02","Puy Roger",,"poteau",45.204090,0.733623,,,0,"MOBIITI:StopPlace:77080",,2,,
"MOBIITI:Quay:112300","LEPPP01","LEP Pablo Picasso",,,45.192432,0.726853,,,0,"MOBIITI:StopPlace:68135",,2,,
"MOBIITI:Quay:111694","cou02","Couture",,"poteau",45.214375,0.736947,,,0,"MOBIITI:StopPlace:77079",,2,,
"MOBIITI:Quay:111697","Pen02","Penlèbre",,"poteau",45.207230,0.735087,,,0,"MOBIITI:StopPlace:77081",,2,,
"MOBIITI:Quay:112302","SorPo1","Sorges - Les Potences",,,45.262451,0.826697,,,0,"MOBIITI:StopPlace:77457",,2,,
"MOBIITI:Quay:111696","PRo01","Puy Roger",,"poteau",45.203598,0.733386,,,0,"MOBIITI:StopPlace:77080",,2,,
"MOBIITI:Quay:112301","Sorpo1","Sorges - Les Potences 2",,,45.259571,0.819953,,,0,"MOBIITI:StopPlace:77456",,2,,
"MOBIITI:Quay:111691","Bon02","Bonneau",,"poteau",45.210072,0.735977,,,0,"MOBIITI:StopPlace:77078",,2,,
"MOBIITI:Quay:111690","Mah01","Les Mazades Hautes",,"poteau",45.201584,0.729229,,,0,"MOBIITI:StopPlace:77077",,2,,
"MOBIITI:Quay:111693","cou01","Couture",,"poteau",45.214161,0.736921,,,0,"MOBIITI:StopPlace:77079",,2,,
"MOBIITI:Quay:111692","Bon01","Bonneau",,"poteau",45.210121,0.736120,,,0,"MOBIITI:StopPlace:77078",,2,,
"MOBIITI:Quay:112309","LacTr01","Lacropte - Trou de l'escalier",,,45.040520,0.864522,,,0,"MOBIITI:StopPlace:77464",,2,,
"MOBIITI:Quay:111699","Maj01","Majoulet",,"abribus SES",45.217667,0.740768,,,0,"MOBIITI:StopPlace:77082",,2,,
"MOBIITI:Quay:112304","LauGa01","Laure Gatet",,,45.189945,0.724150,,,0,"MOBIITI:StopPlace:68143",,2,,
"MOBIITI:Quay:111698","Pen01","Penlèbre",,"poteau",45.207325,0.735217,,,0,"MOBIITI:StopPlace:77081",,2,,
"MOBIITI:Quay:112303","SorPO1","Sorges - Le Poteau",,,45.323143,0.871539,,,0,"MOBIITI:StopPlace:77458",,2,,
"MOBIITI:Quay:112306","Rue8M01","Rue du 8 Mai (49)",,,45.184925,0.633185,,,0,"MOBIITI:StopPlace:77461",,2,,
"MOBIITI:Quay:112305","Charr01","Le Charretier",,,45.239433,0.783319,,,0,"MOBIITI:StopPlace:77460",,2,,
"MOBIITI:Quay:111961","Kes02","Joseph Kessel",,"poteau",45.120777,0.720800,,,0,"MOBIITI:StopPlace:77232",,2,,
"MOBIITI:Quay:111960","Kes01","Joseph Kessel",,"poteau",45.120907,0.720876,,,0,"MOBIITI:StopPlace:77232",,2,,
"MOBIITI:Quay:111725","CxB03","Croix Bertrix",,"abribus DECAUX",45.178963,0.738014,,,0,"MOBIITI:StopPlace:77096",,1,,
"MOBIITI:Quay:111967","PRO02","Prompsault",,"poteau",45.173233,0.726763,,,0,"MOBIITI:StopPlace:77235",,1,,
"MOBIITI:Quay:111724","CxB02","Croix Bertrix",,"poteau",45.178894,0.738275,,,0,"MOBIITI:StopPlace:77096",,2,,
"MOBIITI:Quay:111966","PRO01","Prompsault",,"poteau",45.173187,0.726648,,,0,"MOBIITI:StopPlace:77235",,1,,
"MOBIITI:Quay:111727","Pl801","Pl. du 8 mai",,"abribus DECAUX",45.179150,0.720919,"",,0,"MOBIITI:StopPlace:14610",,1,,
"MOBIITI:Quay:111969","GRE02","Grégaudie",,"poteau",45.159405,0.724309,,,0,"MOBIITI:StopPlace:77236",,2,,
"MOBIITI:Quay:111726","Pl802","Pl. du 8 mai",,"abribus DECAUX",45.178879,0.720972,"",,0,"MOBIITI:StopPlace:14610",,1,,
"MOBIITI:Quay:111968","GRE01","Grégaudie",,"poteau",45.159466,0.724207,,,0,"MOBIITI:StopPlace:77236",,2,,
"MOBIITI:Quay:111721","Les02","Lespinasse",,"poteau",45.179722,0.743858,,,0,"MOBIITI:StopPlace:77094",,2,,
"MOBIITI:Quay:111963","BLA01","La Blancherie",,"poteau",45.125259,0.727106,,,0,"MOBIITI:StopPlace:77233",,2,,
"MOBIITI:Quay:111720","Lil02","Les Lilas Hôpital",,"poteau",45.193012,0.727258,,,0,"MOBIITI:StopPlace:77093",,1,,
"MOBIITI:Quay:111962","BLA02","La Blancherie",,"poteau",45.125195,0.726979,,,0,"MOBIITI:StopPlace:77233",,2,,
"MOBIITI:Quay:111723","Ple01","P+r Lesparat",,"poteau",45.182579,0.756898,,,0,"MOBIITI:StopPlace:77095",,2,,
"MOBIITI:Quay:111965","NDS01","Notre-Dame de Sanilhac Mairie",,"abribus SES",45.175591,0.725974,,,0,"MOBIITI:StopPlace:77234",,2,,
"MOBIITI:Quay:111722","Les01","Lespinasse",,"poteau",45.179401,0.743710,,,0,"MOBIITI:StopPlace:77094",,2,,
"MOBIITI:Quay:111964","NDS02","Notre-Dame de Sanilhac Mairie",,"poteau",45.175652,0.726051,,,0,"MOBIITI:StopPlace:77234",,2,,
"MOBIITI:Quay:111718","Chb01","Champcevinel Bourg",,"Abribus MDO",45.215286,0.726114,,,0,"MOBIITI:StopPlace:77092",,1,,
"MOBIITI:Quay:111717","par01","Maison de retraite Parrot",,"poteau",45.194710,0.731606,,,0,"MOBIITI:StopPlace:77091",,2,,
"MOBIITI:Quay:111959","Pie02","St-Pierre ès Liens",,"poteau",45.134041,0.725301,,,0,"MOBIITI:StopPlace:77231",,2,,
"MOBIITI:Quay:111719","Lil01","Les Lilas Hôpital",,"abribus DECAUX",45.193096,0.727436,,,0,"MOBIITI:StopPlace:77093",,1,,
"MOBIITI:Quay:111950","LeS01","Stèle de Lesparat",,"poteau",45.180809,0.759131,,,0,"MOBIITI:StopPlace:77226",,2,,
"MOBIITI:Quay:111714","Rom01","Trélissac Les Romains",,"poteau",45.195988,0.734480,,,0,"MOBIITI:StopPlace:77090",,2,,
"MOBIITI:Quay:111956","19m02","19-mars-62",,"poteau",45.119598,0.719427,,,0,"MOBIITI:StopPlace:77229",,2,,
"MOBIITI:Quay:111713","maz02","Les Mazades",,"abribus SES",45.199158,0.730487,,,0,"MOBIITI:StopPlace:77089",,2,,
"MOBIITI:Quay:111955","19m01","19-mars-62",,"poteau",45.119709,0.719542,,,0,"MOBIITI:StopPlace:77229",,2,,
"MOBIITI:Quay:111716","par02","Maison de retraite Parrot",,"abribus DECAUX",45.194744,0.731543,,,0,"MOBIITI:StopPlace:77091",,2,,
"MOBIITI:Quay:111958","Pie01","St-Pierre ès Liens",,"poteau",45.133934,0.725237,,,0,"MOBIITI:StopPlace:77231",,2,,
"MOBIITI:Quay:111715","Rom02","Trélissac Les Romains",,"poteau",45.195969,0.734403,,,0,"MOBIITI:StopPlace:77090",,2,,
"MOBIITI:Quay:111957","Gui01","La Guillaumie",,"abribus SES",45.130150,0.722240,,,0,"MOBIITI:StopPlace:77230",,2,,
"MOBIITI:Quay:111710","Cou01","Pierre de Coubertin",,"poteau",45.197338,0.731683,,,0,"MOBIITI:StopPlace:77088",,2,,
"MOBIITI:Quay:111952","Pos01","Notre-Dame de Sanilhac Poste",,"poteau",45.121590,0.715791,,,0,"MOBIITI:StopPlace:77227",,1,,
"MOBIITI:Quay:111951","Pos02","Notre-Dame de Sanilhac Poste",,"poteau",45.121670,0.715486,,,0,"MOBIITI:StopPlace:77227",,1,,
"MOBIITI:Quay:111712","maz01","Les Mazades",,"abribus SES",45.199181,0.730333,,,0,"MOBIITI:StopPlace:77089",,2,,
"MOBIITI:Quay:111954","The01","Therme Blanc",,"poteau",45.143982,0.724004,,,0,"MOBIITI:StopPlace:77228",,2,,
"MOBIITI:Quay:111711","Cou02","Pierre de Coubertin",,"poteau",45.197300,0.731912,,,0,"MOBIITI:StopPlace:77088",,2,,
"MOBIITI:Quay:111953","The02","Therme Blanc",,"poteau",45.144108,0.724017,,,0,"MOBIITI:StopPlace:77228",,2,,
"MOBIITI:Quay:111707","Hor02","Les Hortensias",,"poteau",45.192955,0.737124,,,0,"MOBIITI:StopPlace:77086",,2,,
"MOBIITI:Quay:111949","LeS02","Stèle de Lesparat",,"poteau",45.180744,0.759054,,,0,"MOBIITI:StopPlace:77226",,1,,
"MOBIITI:Quay:111706","ERo02","Les Romains Ecoles",,"poteau",45.194576,0.738446,,,0,"MOBIITI:StopPlace:77085",,2,,
"MOBIITI:Quay:111948","BoN02","Bonnabeau",,"abribus",45.176525,0.761038,,,0,"MOBIITI:StopPlace:77225",,1,,
"MOBIITI:Quay:111709","Lac01","Le Lac",,"abribus MDO",45.217293,0.729036,,,0,"MOBIITI:StopPlace:77087",,1,,
"MOBIITI:Quay:111708","Hor01","Les Hortensias",,"poteau",45.193047,0.737429,,,0,"MOBIITI:StopPlace:77086",,2,,
"MOBIITI:Quay:111703","Aru02","Les Arums",,"poteau",45.193115,0.734289,,,0,"MOBIITI:StopPlace:77084",,2,,
"MOBIITI:Quay:111945","Rim01","Arthur Rimbaud",,"poteau",45.172783,0.762347,,,0,"MOBIITI:StopPlace:77224",,1,,
"MOBIITI:Quay:111702","Ros02","Les Roses",,"abribus SES",45.193691,0.732878,,,0,"MOBIITI:StopPlace:77083",,2,,
"MOBIITI:Quay:111944","Fil01","La Filolie",,"poteau",45.170677,0.763135,,,0,"MOBIITI:StopPlace:77223",,1,,
"MOBIITI:Quay:111705","ERo01","Les Romains Ecoles",,"abribus SES",45.194675,0.738357,,,0,"MOBIITI:StopPlace:77085",,2,,
"MOBIITI:Quay:111947","BoN01","Bonnabeau",,"poteau",45.176605,0.760872,,,0,"MOBIITI:StopPlace:77225",,1,,
"MOBIITI:Quay:111704","Aru01","Les Arums",,"poteau",45.193054,0.734899,,,0,"MOBIITI:StopPlace:77084",,2,,
"MOBIITI:Quay:111946","Rim02","Arthur Rimbaud",,"abribus SES",45.172955,0.762093,,,0,"MOBIITI:StopPlace:77224",,1,,
"MOBIITI:Quay:111941","Bra01","Boulazac les Brandes",,"poteau",45.168961,0.760440,,,0,"MOBIITI:StopPlace:77222",,1,,
"MOBIITI:Quay:111940","ChE02","Les Grands Chênes",,"poteau",45.166718,0.755469,,,0,"MOBIITI:StopPlace:77221",,2,,
"MOBIITI:Quay:111701","Ros01","Les Roses",,"poteau",45.193756,0.732738,,,0,"MOBIITI:StopPlace:77083",,2,,
"MOBIITI:Quay:111943","Fil02","La Filolie",,"poteau",45.171215,0.763470,,,0,"MOBIITI:StopPlace:77223",,1,,
"MOBIITI:Quay:111700","Maj02","Majoulet",,"poteau",45.217613,0.740483,,,0,"MOBIITI:StopPlace:77082",,2,,
"MOBIITI:Quay:111942","Bra02","Boulazac les Brandes",,"poteau",45.167995,0.759054,,,0,"MOBIITI:StopPlace:77222",,1,,
"MOBIITI:Quay:111938","BEA02","Beauronne",,"poteau",45.224621,0.670788,,,0,"MOBIITI:StopPlace:77220",,2,,
"MOBIITI:Quay:111937","BEA01","Beauronne",,"poteau",45.224537,0.670742,,,0,"MOBIITI:StopPlace:77220",,2,,
"MOBIITI:Quay:111939","ChE01","Les Grands Chênes",,"poteau",45.166618,0.755558,,,0,"MOBIITI:StopPlace:77221",,2,,
"MOBIITI:Quay:111934","BCO01","Bois Ouest",,"poteau",45.213356,0.646503,,,0,"MOBIITI:StopPlace:77218",,2,,
"MOBIITI:Quay:111933","CHa01","Le Charpré",,"poteau",45.209053,0.658302,,,0,"MOBIITI:StopPlace:77217",,2,,
"MOBIITI:Quay:111936","bru01","Les Bruyères",,"poteau",45.213760,0.650157,,,0,"MOBIITI:StopPlace:77219",,2,,
"MOBIITI:Quay:111935","BCO02","Bois Ouest",,"abribus SES",45.213318,0.646415,,,0,"MOBIITI:StopPlace:77218",,2,,
"MOBIITI:Quay:111930","LBa02","Lavaure Basse",,"abribus SES",45.217663,0.672261,,,0,"MOBIITI:StopPlace:77216",,2,,
"MOBIITI:Quay:111932","CHa02","Le Charpré",,"poteau",45.209042,0.658238,,,0,"MOBIITI:StopPlace:77217",,2,,
"MOBIITI:Quay:111931","LBa01","Lavaure Basse",,"poteau",45.217720,0.672069,,,0,"MOBIITI:StopPlace:77216",,2,,
"MOBIITI:Quay:111927","PAR01","Parricot",,"poteau",45.213009,0.667931,,,0,"MOBIITI:StopPlace:77214",,2,,
"MOBIITI:Quay:111926","PAR02","Parricot",,"poteau",45.213200,0.667376,,,0,"MOBIITI:StopPlace:77214",,2,,
"MOBIITI:Quay:111929","Fau02","Al. des Fauvettes",,"poteau",45.219746,0.653053,,,0,"MOBIITI:StopPlace:77215",,2,,
"MOBIITI:Quay:111928","Fau01","Al. des Fauvettes",,"abribus SES",45.219757,0.652932,,,0,"MOBIITI:StopPlace:77215",,2,,
"MOBIITI:Quay:111761","RJa01","Rte de Jaunour",,"poteau",45.181992,0.790515,,,0,"MOBIITI:StopPlace:77116",,1,,
"MOBIITI:Quay:111760","RJa02","Rte de Jaunour",,"poteau",45.182011,0.789864,,,0,"MOBIITI:StopPlace:77116",,1,,
"MOBIITI:Quay:111763","Mil02","Alice Milliat",,"poteau",45.183128,0.782881,,,0,"MOBIITI:StopPlace:77117",,2,,
"MOBIITI:Quay:111762","Mil01","Alice Milliat",,"poteau",45.182751,0.782803,,,0,"MOBIITI:StopPlace:77117",,2,,
"MOBIITI:Quay:111769","Cne02","Combe Neuve",,"poteau",45.172707,0.788556,,,0,"MOBIITI:StopPlace:77120",,2,,
"MOBIITI:Quay:111768","Cne01","Combe Neuve",,"poteau",45.172737,0.787799,,,0,"MOBIITI:StopPlace:77120",,2,,
"MOBIITI:Quay:111765","Per02","Yves Péron",,"abribus SES",45.171417,0.774990,,,0,"MOBIITI:StopPlace:77118",,2,,
"MOBIITI:Quay:111764","Per01","Yves Péron",,"poteau",45.171368,0.774646,,,0,"MOBIITI:StopPlace:77118",,2,,
"MOBIITI:Quay:111767","Rcn01","Rte de Combe Neuve",,"poteau",45.172352,0.781506,,,0,"MOBIITI:StopPlace:77119",,2,,
"MOBIITI:Quay:111766","Rcn02","Rte de Combe Neuve",,"poteau",45.172276,0.781334,,,0,"MOBIITI:StopPlace:77119",,2,,
"MOBIITI:Quay:111750","PHa01","Pey Harry",,"poteau",45.170380,0.745566,,,0,"MOBIITI:StopPlace:77110",,2,,
"MOBIITI:Quay:111992","DUV01","Duverger",,"poteau",45.158569,0.730760,,,0,"MOBIITI:StopPlace:77248",,2,,
"MOBIITI:Quay:111991","HPo02","Les Hauts de Pommier",,"Poteau",45.163109,0.734710,,,0,"MOBIITI:StopPlace:77247",,2,,
"MOBIITI:Quay:111752","GSG02","Gare St-Georges",,"abribus DECAUX",45.178120,0.733844,,,0,"MOBIITI:StopPlace:77111",,2,,
"MOBIITI:Quay:111994","Pom02","Pommier",,"Poteau",45.156731,0.729110,,,0,"MOBIITI:StopPlace:77249",,2,,
"MOBIITI:Quay:111751","PHa02","Pey Harry",,"poteau",45.170570,0.745438,,,0,"MOBIITI:StopPlace:77110",,2,,
"MOBIITI:Quay:111993","DUV02","Duverger",,"Poteau",45.158531,0.730620,,,0,"MOBIITI:StopPlace:77248",,2,,
"MOBIITI:Quay:111990","HPo01","Les Hauts de Pommier",,"poteau",45.163181,0.734810,,,0,"MOBIITI:StopPlace:77247",,2,,
"MOBIITI:Quay:111758","ESA01","ESAT",,"Poteau",45.205536,0.827388,,,0,"MOBIITI:StopPlace:77114",,2,,
"MOBIITI:Quay:111757","RPT01","Rte du Pont",,"abribus SES",45.192982,0.781620,,,0,"MOBIITI:StopPlace:77113",,1,,
"MOBIITI:Quay:111999","Pco02","Puycorbeau",,"poteau",45.146580,0.729500,,,0,"MOBIITI:StopPlace:77251",,2,,
"MOBIITI:Quay:111754","BoI01","Boisserie",,"poteau",45.167591,0.753194,,,0,"MOBIITI:StopPlace:77112",,2,,
"MOBIITI:Quay:111996","Chd02","F. René Chateaubriand",,"poteau",45.141781,0.744120,,,0,"MOBIITI:StopPlace:77250",,2,,
"MOBIITI:Quay:111753","GSG01","Gare St-Georges",,"poteau",45.177982,0.733704,,,0,"MOBIITI:StopPlace:77111",,2,,
"MOBIITI:Quay:111995","Pom01","Pommier",,"poteau",45.156738,0.729200,,,0,"MOBIITI:StopPlace:77249",,2,,
"MOBIITI:Quay:111756","RPT02","Rte du Pont",,"poteau",45.193108,0.781481,,,0,"MOBIITI:StopPlace:77113",,1,,
"MOBIITI:Quay:111998","Pco01","Puycorbeau",,"poteau",45.146591,0.729690,,,0,"MOBIITI:StopPlace:77251",,2,,
"MOBIITI:Quay:111755","BoI02","Boisserie",,"poteau",45.167755,0.752825,,,0,"MOBIITI:StopPlace:77112",,2,,
"MOBIITI:Quay:111997","Chd01","F. René Chateaubriand",,"poteau",45.141830,0.744330,,,0,"MOBIITI:StopPlace:77250",,2,,
"MOBIITI:Quay:111981","Apo02","Guillaume Apollinaire",,"poteau",45.143478,0.735950,,,0,"MOBIITI:StopPlace:77242",,2,,
"MOBIITI:Quay:111980","Apo01","Guillaume Apollinaire",,"poteau",45.143501,0.736190,,,0,"MOBIITI:StopPlace:77242",,2,,
"MOBIITI:Quay:111741","SGE02","St-Georges",,"abribus DECAUX",45.177498,0.730348,,,0,"MOBIITI:StopPlace:77105",,2,,
"MOBIITI:Quay:111983","pin01","Les Pins",,"poteau",45.172150,0.732690,,,0,"MOBIITI:StopPlace:77243",,2,,
"MOBIITI:Quay:111740","SGE01","St-Georges",,"poteau",45.177364,0.730284,,,0,"MOBIITI:StopPlace:77105",,2,,
"MOBIITI:Quay:111982","pin02","Les Pins",,"poteau",45.173439,0.732120,,,0,"MOBIITI:StopPlace:77243",,2,,
"MOBIITI:Quay:111747","BeA02","Beauregard",,"abribus SES",45.169029,0.749392,,,0,"MOBIITI:StopPlace:77108",,2,,
"MOBIITI:Quay:111989","CHA02","Chantelot",,"Poteau",45.166042,0.734467,,,0,"MOBIITI:StopPlace:77246",,2,,
"MOBIITI:Quay:111746","BeA01","Beauregard",,"poteau",45.168781,0.749939,,,0,"MOBIITI:StopPlace:77108",,2,,
"MOBIITI:Quay:111988","CHA01","Chantelot",,"poteau",45.166012,0.734490,,,0,"MOBIITI:StopPlace:77246",,2,,
"MOBIITI:Quay:111749","OdG02","Olympe de Gouges",,"poteau",45.174187,0.741383,,,0,"MOBIITI:StopPlace:77109",,1,,
"MOBIITI:Quay:111748","OdG01","Olympe de Gouges",,"poteau",45.174107,0.741408,,,0,"MOBIITI:StopPlace:77109",,2,,
"MOBIITI:Quay:111743","MoN01","Montplaisir",,"poteau",45.175922,0.740188,,,0,"MOBIITI:StopPlace:77106",,2,,
"MOBIITI:Quay:111985","Tur01","La Turcade",,"poteau",45.169590,0.733630,,,0,"MOBIITI:StopPlace:77244",,2,,
"MOBIITI:Quay:111742","MoN02","Montplaisir",,"poteau",45.175949,0.740213,,,0,"MOBIITI:StopPlace:77106",,2,,
"MOBIITI:Quay:111984","Tur02","La Turcade",,"Poteau",45.169479,0.733590,,,0,"MOBIITI:StopPlace:77244",,2,,
"MOBIITI:Quay:111745","cHa02","Les Châtaigniers",,"poteau",45.172836,0.742451,,,0,"MOBIITI:StopPlace:77107",,2,,
"MOBIITI:Quay:111987","LBl01","Le Lac Blanc",,"poteau",45.152451,0.727890,,,0,"MOBIITI:StopPlace:77245",,2,,
"MOBIITI:Quay:111744","cHa01","Les Châtaigniers",,"poteau",45.172386,0.742731,,,0,"MOBIITI:StopPlace:77107",,2,,
"MOBIITI:Quay:111986","LBl02","Le Lac Blanc",,"Poteau",45.152351,0.727800,,,0,"MOBIITI:StopPlace:77245",,2,,
"MOBIITI:Quay:111739","Glc01","Gay Lussac",,"abribus SES",45.180569,0.741105,,,0,"MOBIITI:StopPlace:77104",,2,,
"MOBIITI:Quay:111970","JAR01","Les Jargues",,"poteau",45.156803,0.723076,,,0,"MOBIITI:StopPlace:77237",,2,,
"MOBIITI:Quay:111730","PLB02","Léon Blum",,"poteau",45.178207,0.754363,,,0,"MOBIITI:StopPlace:77099",,2,,
"MOBIITI:Quay:111972","SAN01","Sansonnet",,"poteau",45.149830,0.722987,,,0,"MOBIITI:StopPlace:77238",,2,,
"MOBIITI:Quay:111971","JAR02","Les Jargues",,"poteau",45.156815,0.723127,,,0,"MOBIITI:StopPlace:77237",,2,,
"MOBIITI:Quay:111736","MAN01","Espace Nelson Mandela",,"poteau",45.181656,0.759004,,,0,"MOBIITI:StopPlace:77102",,2,,
"MOBIITI:Quay:111978","Atu02","Atur Bourg",,"poteau",45.140148,0.747970,,,0,"MOBIITI:StopPlace:77241",,2,,
"MOBIITI:Quay:111735","mon01","Les Mondis",,"poteau",45.179234,0.750003,,,0,"MOBIITI:StopPlace:77101",,2,,
"MOBIITI:Quay:111977","FAL01","Les Falots",,"poteau",45.163822,0.726521,,,0,"MOBIITI:StopPlace:77240",,2,,
"MOBIITI:Quay:111738","Lav01","Lavoisier",,"poteau",45.180931,0.743143,,,0,"MOBIITI:StopPlace:77103",,2,,
"MOBIITI:Quay:111737","MAN02","Espace Nelson Mandela",,"poteau",45.181583,0.758889,,,0,"MOBIITI:StopPlace:77102",,2,,
"MOBIITI:Quay:111979","Atu01","Atur Bourg",,"poteau",45.140270,0.747840,,,0,"MOBIITI:StopPlace:77241",,2,,
"MOBIITI:Quay:111732","GMO02","Gaston Monmousseau",,"poteau",45.178989,0.756931,,,0,"MOBIITI:StopPlace:77100",,2,,
"MOBIITI:Quay:111974","DIA01","Dian",,"poteau",45.168736,0.725707,,,0,"MOBIITI:StopPlace:77239",,2,,
"MOBIITI:Quay:111731","PLB01","Léon Blum",,"poteau",45.178108,0.754389,,,0,"MOBIITI:StopPlace:77099",,2,,
"MOBIITI:Quay:111973","SAN02","Sansonnet",,"poteau",45.150208,0.723038,,,0,"MOBIITI:StopPlace:77238",,2,,
"MOBIITI:Quay:111734","mon02","Les Mondis",,"poteau",45.179127,0.750130,,,0,"MOBIITI:StopPlace:77101",,2,,
"MOBIITI:Quay:111976","FAL02","Les Falots",,"poteau",45.163857,0.726534,,,0,"MOBIITI:StopPlace:77240",,2,,
"MOBIITI:Quay:111733","GMO01","Gaston Monmousseau",,"poteau",45.179234,0.757109,,,0,"MOBIITI:StopPlace:77100",,2,,
"MOBIITI:Quay:111975","DIA02","Dian",,"poteau",45.168877,0.725835,,,0,"MOBIITI:StopPlace:77239",,2,,
"MOBIITI:Quay:111729","Bar02","Max Barel",,"poteau",45.176788,0.752291,,,0,"MOBIITI:StopPlace:77098",,2,,
"MOBIITI:Quay:111728","Bar01","Max Barel",,"poteau",45.176716,0.752291,,,0,"MOBIITI:StopPlace:77098",,2,,
"MOBIITI:Quay:112197","Langl02","Langlade",,,45.178425,0.602052,,,0,"MOBIITI:StopPlace:77377",,2,,
"MOBIITI:Quay:112196","AlbCl02","Albert Claveille",,,45.189369,0.713544,,,0,"MOBIITI:StopPlace:77376",,2,,
"MOBIITI:Quay:112199","Lache01","Lachenal",,,45.171684,0.583536,,,0,"MOBIITI:StopPlace:77378",,2,,
"MOBIITI:Quay:112198","Langl01","Langlade",,,45.178589,0.602523,,,0,"MOBIITI:StopPlace:77377",,2,,
"MOBIITI:Quay:112193","AntEc01","Antonne - Ecole",,,45.211960,0.830500,,,0,"MOBIITI:StopPlace:77374",,2,,
"MOBIITI:Quay:112192","EcPri01","Ecole Primaire",,,45.182438,0.653504,,,0,"MOBIITI:StopPlace:77373",,2,,
"MOBIITI:Quay:112195","AlbCl01","Albert Claveille",,,45.189320,0.713445,,,0,"MOBIITI:StopPlace:77376",,2,,
"MOBIITI:Quay:112194","EscEc01","Escoire - Ecole",,,45.209888,0.845470,,,0,"MOBIITI:StopPlace:77375",,2,,
"MOBIITI:Quay:112191","EcMat01","Ecole Maternelle",,,45.185970,0.633892,,,0,"MOBIITI:StopPlace:77372",,2,,
"MOBIITI:Quay:112186","Cerf02","Le Cerf de Memie",,,45.146263,0.639590,,,0,"MOBIITI:StopPlace:77369",,2,,
"MOBIITI:Quay:112185","ResMo01","Residence la Morine",,,45.118702,0.641282,,,0,"MOBIITI:StopPlace:77368",,2,,
"MOBIITI:Quay:112187","Cerf01","Le Cerf de Memie",,,45.146641,0.639619,,,0,"MOBIITI:StopPlace:77369",,2,,
"MOBIITI:Quay:112182","MaiJe01","Maison Jeannette",,,45.115089,0.637714,,,0,"MOBIITI:StopPlace:77365",,2,,
"MOBIITI:Quay:112181","Volve01","Volvey",,,45.110493,0.638759,,,0,"MOBIITI:StopPlace:77364",,2,,
"MOBIITI:Quay:112184","LacRo01","Le Lac Rouge",,,45.141647,0.634982,,,0,"MOBIITI:StopPlace:77367",,2,,
"MOBIITI:Quay:112183","CoupG02","Coupe-Gorge",,,45.106697,0.626969,,,0,"MOBIITI:StopPlace:77366",,2,,
"MOBIITI:Quay:112180","CourE01","Coursac Ecole",,,45.125355,0.640585,,,0,"MOBIITI:StopPlace:77363",,2,,
"MOBIITI:Quay:111923","LHa02","Lavaure Haute",,"poteau",45.216167,0.677689,,,0,"MOBIITI:StopPlace:77212",,2,,
"MOBIITI:Quay:111922","LHa01","Lavaure Haute",,"poteau",45.216175,0.677620,,,0,"MOBIITI:StopPlace:77212",,2,,
"MOBIITI:Quay:111925","PFe02","Puy Ferrat",,"poteau",45.209763,0.679469,,,0,"MOBIITI:StopPlace:77213",,2,,
"MOBIITI:Quay:111924","PFe01","Puy Ferrat",,"poteau",45.209648,0.679328,,,0,"MOBIITI:StopPlace:77213",,2,,
"MOBIITI:Quay:111921","PAr02","Puy de l'Arche",,"poteau",45.212769,0.680486,,,0,"MOBIITI:StopPlace:77211",,2,,
"MOBIITI:Quay:111920","PAr01","Puy de l'Arche",,"poteau",45.213230,0.680208,,,0,"MOBIITI:StopPlace:77211",,2,,
"MOBIITI:Quay:111919","Ali01","Les Alisiers",,"poteau",45.215420,0.646606,,,0,"MOBIITI:StopPlace:77210",,2,,
"MOBIITI:Quay:111916","Lig01","Le Ligonat",,"poteau",45.219387,0.648145,,,0,"MOBIITI:StopPlace:77209",,2,,
"MOBIITI:Quay:111915","MAJ01","Majourdin",,"poteau",45.198349,0.650170,,,0,"MOBIITI:StopPlace:77208",,2,,
"MOBIITI:Quay:111918","Ali02","Les Alisiers",,"abribus SES",45.215782,0.646529,,,0,"MOBIITI:StopPlace:77210",,2,,
"MOBIITI:Quay:111917","Lig02","Le Ligonat",,"abribus SES",45.219429,0.648125,,,0,"MOBIITI:StopPlace:77209",,2,,
"MOBIITI:Quay:111912","Ter01","Terrassonnie Village",,"poteau",45.204166,0.644177,,,0,"MOBIITI:StopPlace:77207",,2,,
"MOBIITI:Quay:111911","CTe02","Chem. de Terrassonnie",,"poteau",45.206459,0.650636,,,0,"MOBIITI:StopPlace:77206",,2,,
"MOBIITI:Quay:111914","MAJ02","Majourdin",,"poteau",45.198669,0.649788,,,0,"MOBIITI:StopPlace:77208",,2,,
"MOBIITI:Quay:111913","Ter02","Terrassonnie Village",,"poteau",45.204185,0.644037,,,0,"MOBIITI:StopPlace:77207",,2,,
"MOBIITI:Quay:111910","CTe01","Chem. de Terrassonnie",,"poteau",45.205452,0.650407,,,0,"MOBIITI:StopPlace:77206",,2,,
"MOBIITI:Quay:111909","boi01","Al. des Bois",,"poteau",45.205769,0.666006,,,0,"MOBIITI:StopPlace:77205",,2,,
"MOBIITI:Quay:111908","boi02","Al. des Bois",,"poteau",45.205841,0.665955,,,0,"MOBIITI:StopPlace:77205",,2,,
"MOBIITI:Quay:111905","Spo02","Al. des Sports",,"poteau",45.192684,0.647618,,,0,"MOBIITI:StopPlace:77203",,2,,
"MOBIITI:Quay:111904","Spo01","Al. des Sports",,"poteau",45.192703,0.647526,,,0,"MOBIITI:StopPlace:77203",,2,,
"MOBIITI:Quay:111907","Cur02","Curille",,"poteau",45.206783,0.661289,,,0,"MOBIITI:StopPlace:77204",,2,,
"MOBIITI:Quay:111906","Cur01","Curille",,"poteau",45.206791,0.661188,,,0,"MOBIITI:StopPlace:77204",,2,,
"MOBIITI:Quay:111901","CLe02","Chem. de Lespinasse",,"poteau",45.196758,0.643655,,,0,"MOBIITI:StopPlace:77201",,2,,
"MOBIITI:Quay:111900","CLe01","Chem. de Lespinasse",,"poteau",45.196697,0.643859,,,0,"MOBIITI:StopPlace:77201",,2,,
"MOBIITI:Quay:111903","LhA01","Lespinasse Haute",,"poteau",45.197403,0.640034,,,0,"MOBIITI:StopPlace:77202",,2,,
"MOBIITI:Quay:111902","LhA02","Lespinasse Haute",,"poteau",45.197689,0.639677,,,0,"MOBIITI:StopPlace:77202",,2,,
"MOBIITI:Quay:115495","CRe01","Créavallée",,"poteau",45.132294,0.702277,,,0,"MOBIITI:StopPlace:77155",,1,,
